{
"type": "FeatureCollection",
"name": "hotosm_mys_health_facilities_points_geojson",
"features": [
{ "type": "Feature", "properties": { "name": "Nazirin Skin Clinic", "name:en": null, "amenity": "doctors", "building": null, "healthcare": "doctor", "healthcare:speciality": "dermatology", "operator:type": null, "capacity:persons": null, "addr:full": null, "addr:city": "Kuala Lumpur", "source": null, "name:ms": null, "osm_id": 6195318772, "osm_type": "nodes" }, "geometry": { "type": "Point", "coordinates": [ 101.6771025, 3.1193737 ] } },
{ "type": "Feature", "properties": { "name": "Green River Farmasi", "name:en": "Green River Pharmacy", "amenity": "pharmacy", "building": null, "healthcare": "pharmacy", "healthcare:speciality": null, "operator:type": null, "capacity:persons": null, "addr:full": null, "addr:city": null, "source": null, "name:ms": null, "osm_id": 9848448666, "osm_type": "nodes" }, "geometry": { "type": "Point", "coordinates": [ 100.3084704, 5.4042183 ] } },
{ "type": "Feature", "properties": { "name": "Guardian", "name:en": null, "amenity": "pharmacy", "building": null, "healthcare": "pharmacy", "healthcare:speciality": null, "operator:type": null, "capacity:persons": null, "addr:full": null, "addr:city": "Iskandar Puteri", "source": null, "name:ms": null, "osm_id": 9849115511, "osm_type": "nodes" }, "geometry": { "type": "Point", "coordinates": [ 103.620268, 1.438619 ] } },
{ "type": "Feature", "properties": { "name": "MNY", "name:en": null, "amenity": "pharmacy", "building": null, "healthcare": null, "healthcare:speciality": null, "operator:type": null, "capacity:persons": null, "addr:full": null, "addr:city": null, "source": null, "name:ms": null, "osm_id": 3934368866, "osm_type": "nodes" }, "geometry": { "type": "Point", "coordinates": [ 100.4192653, 6.2371365 ] } },
{ "type": "Feature", "properties": { "name": "Klinik Reddy", "name:en": null, "amenity": "clinic", "building": null, "healthcare": "clinic", "healthcare:speciality": null, "operator:type": null, "capacity:persons": null, "addr:full": null, "addr:city": "Puchong", "source": null, "name:ms": null, "osm_id": 4733564785, "osm_type": "nodes" }, "geometry": { "type": "Point", "coordinates": [ 101.6481369, 3.0638081 ] } },
{ "type": "Feature", "properties": { "name": "Klinik Pergigian Lim", "name:en": "Lim Dental Surgery", "amenity": "dentist", "building": null, "healthcare": "dentist", "healthcare:speciality": null, "operator:type": null, "capacity:persons": null, "addr:full": null, "addr:city": "Puchong", "source": null, "name:ms": null, "osm_id": 4733564790, "osm_type": "nodes" }, "geometry": { "type": "Point", "coordinates": [ 101.6478103, 3.063453 ] } },
{ "type": "Feature", "properties": { "name": "Klinik Selva", "name:en": null, "amenity": "clinic", "building": null, "healthcare": "clinic", "healthcare:speciality": null, "operator:type": null, "capacity:persons": null, "addr:full": null, "addr:city": "Puchong", "source": null, "name:ms": null, "osm_id": 1866862784, "osm_type": "nodes" }, "geometry": { "type": "Point", "coordinates": [ 101.6482914, 3.0638902 ] } },
{ "type": "Feature", "properties": { "name": "Family Clinic", "name:en": null, "amenity": "clinic", "building": null, "healthcare": "clinic", "healthcare:speciality": null, "operator:type": null, "capacity:persons": null, "addr:full": null, "addr:city": null, "source": null, "name:ms": null, "osm_id": 12535716338, "osm_type": "nodes" }, "geometry": { "type": "Point", "coordinates": [ 102.5859405, 2.0484926 ] } },
{ "type": "Feature", "properties": { "name": "Berkat Farmasi", "name:en": null, "amenity": "pharmacy", "building": null, "healthcare": null, "healthcare:speciality": null, "operator:type": null, "capacity:persons": null, "addr:full": null, "addr:city": null, "source": null, "name:ms": null, "osm_id": 7620234832, "osm_type": "nodes" }, "geometry": { "type": "Point", "coordinates": [ 102.4500247, 3.4548117 ] } },
{ "type": "Feature", "properties": { "name": "Poliklinik Simpang", "name:en": null, "amenity": "clinic", "building": null, "healthcare": null, "healthcare:speciality": null, "operator:type": null, "capacity:persons": null, "addr:full": null, "addr:city": null, "source": null, "name:ms": null, "osm_id": 9846405684, "osm_type": "nodes" }, "geometry": { "type": "Point", "coordinates": [ 100.7034637, 4.8251768 ] } },
{ "type": "Feature", "properties": { "name": "Klinik C.H. Ang", "name:en": null, "amenity": "clinic", "building": null, "healthcare": "clinic", "healthcare:speciality": null, "operator:type": null, "capacity:persons": null, "addr:full": null, "addr:city": null, "source": null, "name:ms": "Klinik C.H. Ang", "osm_id": 6186119333, "osm_type": "nodes" }, "geometry": { "type": "Point", "coordinates": [ 100.3894179, 5.4354688 ] } },
{ "type": "Feature", "properties": { "name": null, "name:en": null, "amenity": "clinic", "building": null, "healthcare": "clinic", "healthcare:speciality": null, "operator:type": null, "capacity:persons": null, "addr:full": null, "addr:city": null, "source": null, "name:ms": null, "osm_id": 11182505055, "osm_type": "nodes" }, "geometry": { "type": "Point", "coordinates": [ 101.4762402, 3.2070749 ] } },
{ "type": "Feature", "properties": { "name": "Klinik Ringlet & Surgeri", "name:en": null, "amenity": "clinic", "building": null, "healthcare": "clinic", "healthcare:speciality": null, "operator:type": null, "capacity:persons": null, "addr:full": null, "addr:city": "Cameron Highlands", "source": null, "name:ms": "Klinik Ringlet & Surgeri", "osm_id": 4674753753, "osm_type": "nodes" }, "geometry": { "type": "Point", "coordinates": [ 101.3822474, 4.4141085 ] } },
{ "type": "Feature", "properties": { "name": "Grace Dental Surgery", "name:en": null, "amenity": "dentist", "building": null, "healthcare": "dentist", "healthcare:speciality": "dentist", "operator:type": null, "capacity:persons": null, "addr:full": null, "addr:city": null, "source": null, "name:ms": null, "osm_id": 6176370969, "osm_type": "nodes" }, "geometry": { "type": "Point", "coordinates": [ 118.0714595, 5.8553502 ] } },
{ "type": "Feature", "properties": { "name": "Klinik Rajadurai", "name:en": null, "amenity": "doctors", "building": null, "healthcare": "doctor", "healthcare:speciality": "general;radiology", "operator:type": null, "capacity:persons": null, "addr:full": null, "addr:city": null, "source": null, "name:ms": null, "osm_id": 6176370976, "osm_type": "nodes" }, "geometry": { "type": "Point", "coordinates": [ 118.0750034, 5.8546578 ] } },
{ "type": "Feature", "properties": { "name": "Klinik Aishah", "name:en": null, "amenity": "clinic", "building": null, "healthcare": "clinic", "healthcare:speciality": null, "operator:type": null, "capacity:persons": null, "addr:full": null, "addr:city": null, "source": null, "name:ms": null, "osm_id": 12906018945, "osm_type": "nodes" }, "geometry": { "type": "Point", "coordinates": [ 103.1385492, 5.3329941 ] } },
{ "type": "Feature", "properties": { "name": "Klinik Teh", "name:en": null, "amenity": "doctors", "building": null, "healthcare": "doctor", "healthcare:speciality": "general", "operator:type": null, "capacity:persons": null, "addr:full": null, "addr:city": null, "source": null, "name:ms": null, "osm_id": 6176371025, "osm_type": "nodes" }, "geometry": { "type": "Point", "coordinates": [ 118.0724706, 5.8527559 ] } },
{ "type": "Feature", "properties": { "name": "Circle Pharmacy", "name:en": null, "amenity": "pharmacy", "building": null, "healthcare": "pharmacy", "healthcare:speciality": null, "operator:type": null, "capacity:persons": null, "addr:full": null, "addr:city": null, "source": null, "name:ms": null, "osm_id": 6176371031, "osm_type": "nodes" }, "geometry": { "type": "Point", "coordinates": [ 118.0728842, 5.854389 ] } },
{ "type": "Feature", "properties": { "name": "Permai Polyclinic", "name:en": null, "amenity": "doctors", "building": null, "healthcare": "doctor", "healthcare:speciality": "general", "operator:type": null, "capacity:persons": null, "addr:full": null, "addr:city": null, "source": null, "name:ms": null, "osm_id": 6176370980, "osm_type": "nodes" }, "geometry": { "type": "Point", "coordinates": [ 118.0743851, 5.8548604 ] } },
{ "type": "Feature", "properties": { "name": "Guardian Bandar Indah", "name:en": null, "amenity": "pharmacy", "building": null, "healthcare": "pharmacy", "healthcare:speciality": null, "operator:type": null, "capacity:persons": null, "addr:full": null, "addr:city": null, "source": null, "name:ms": null, "osm_id": 6176370982, "osm_type": "nodes" }, "geometry": { "type": "Point", "coordinates": [ 118.0735638, 5.8551009 ] } },
{ "type": "Feature", "properties": { "name": "Klinik Pergigian Dr Chong", "name:en": null, "amenity": "doctors", "building": null, "healthcare": "doctor", "healthcare:speciality": "dentist", "operator:type": null, "capacity:persons": null, "addr:full": null, "addr:city": null, "source": null, "name:ms": null, "osm_id": 6176370984, "osm_type": "nodes" }, "geometry": { "type": "Point", "coordinates": [ 118.0731291, 5.8552176 ] } },
{ "type": "Feature", "properties": { "name": "Klinik Pakar Pakar Sandakan", "name:en": null, "amenity": "clinic", "building": null, "healthcare": "clinic", "healthcare:speciality": null, "operator:type": null, "capacity:persons": null, "addr:full": null, "addr:city": null, "source": null, "name:ms": null, "osm_id": 6176370993, "osm_type": "nodes" }, "geometry": { "type": "Point", "coordinates": [ 118.0727975, 5.8549737 ] } },
{ "type": "Feature", "properties": { "name": "KelinikTM Thian", "name:en": null, "amenity": "doctors", "building": null, "healthcare": "doctor", "healthcare:speciality": "general;cardiology", "operator:type": null, "capacity:persons": null, "addr:full": null, "addr:city": null, "source": null, "name:ms": null, "osm_id": 6176370996, "osm_type": "nodes" }, "geometry": { "type": "Point", "coordinates": [ 118.0736325, 5.8547215 ] } },
{ "type": "Feature", "properties": { "name": "Klinik Indah", "name:en": null, "amenity": "doctors", "building": null, "healthcare": "doctor", "healthcare:speciality": "general;paediatrics", "operator:type": null, "capacity:persons": null, "addr:full": null, "addr:city": null, "source": null, "name:ms": null, "osm_id": 6176371012, "osm_type": "nodes" }, "geometry": { "type": "Point", "coordinates": [ 118.0736799, 5.8538049 ] } },
{ "type": "Feature", "properties": { "name": "Farmasi Dispensary Borneo Indah", "name:en": null, "amenity": "pharmacy", "building": null, "healthcare": "pharmacy", "healthcare:speciality": null, "operator:type": null, "capacity:persons": null, "addr:full": null, "addr:city": null, "source": null, "name:ms": null, "osm_id": 6176371013, "osm_type": "nodes" }, "geometry": { "type": "Point", "coordinates": [ 118.0732725, 5.8535669 ] } },
{ "type": "Feature", "properties": { "name": "Tan Specialist Clinic for Women", "name:en": null, "amenity": "doctors", "building": null, "healthcare": "doctor", "healthcare:speciality": "gynaecology", "operator:type": null, "capacity:persons": null, "addr:full": null, "addr:city": null, "source": null, "name:ms": null, "osm_id": 6172547224, "osm_type": "nodes" }, "geometry": { "type": "Point", "coordinates": [ 118.0775322, 5.8553982 ] } },
{ "type": "Feature", "properties": { "name": "Lau Kee Oon Specialist Clinic", "name:en": null, "amenity": "doctors", "building": null, "healthcare": "doctor", "healthcare:speciality": "surgery", "operator:type": null, "capacity:persons": null, "addr:full": null, "addr:city": null, "source": null, "name:ms": null, "osm_id": 6172547226, "osm_type": "nodes" }, "geometry": { "type": "Point", "coordinates": [ 118.0779688, 5.8556763 ] } },
{ "type": "Feature", "properties": { "name": "World Pharmacy", "name:en": null, "amenity": "pharmacy", "building": null, "healthcare": "pharmacy", "healthcare:speciality": null, "operator:type": null, "capacity:persons": null, "addr:full": null, "addr:city": null, "source": null, "name:ms": null, "osm_id": 6172547230, "osm_type": "nodes" }, "geometry": { "type": "Point", "coordinates": [ 118.0785077, 5.8559887 ] } },
{ "type": "Feature", "properties": { "name": "Farmasi Walgreene", "name:en": null, "amenity": "pharmacy", "building": null, "healthcare": "pharmacy", "healthcare:speciality": null, "operator:type": null, "capacity:persons": null, "addr:full": null, "addr:city": null, "source": null, "name:ms": null, "osm_id": 6172547239, "osm_type": "nodes" }, "geometry": { "type": "Point", "coordinates": [ 118.0776158, 5.856155 ] } },
{ "type": "Feature", "properties": { "name": "Berkat Physiotherapy", "name:en": null, "amenity": null, "building": null, "healthcare": "physiotherapist", "healthcare:speciality": "physiotherapy", "operator:type": null, "capacity:persons": null, "addr:full": null, "addr:city": null, "source": null, "name:ms": null, "osm_id": 6176476621, "osm_type": "nodes" }, "geometry": { "type": "Point", "coordinates": [ 118.0760983, 5.8529526 ] } },
{ "type": "Feature", "properties": { "name": "Makmal Pathlab", "name:en": null, "amenity": null, "building": null, "healthcare": "laboratory", "healthcare:speciality": null, "operator:type": null, "capacity:persons": null, "addr:full": null, "addr:city": null, "source": null, "name:ms": null, "osm_id": 6176370990, "osm_type": "nodes" }, "geometry": { "type": "Point", "coordinates": [ 118.0726566, 5.854784 ] } },
{ "type": "Feature", "properties": { "name": "Klinik Dr Agnes Lim", "name:en": null, "amenity": "doctors", "building": null, "healthcare": "doctor", "healthcare:speciality": "general", "operator:type": null, "capacity:persons": null, "addr:full": null, "addr:city": null, "source": null, "name:ms": null, "osm_id": 6169968134, "osm_type": "nodes" }, "geometry": { "type": "Point", "coordinates": [ 118.0738371, 5.8580864 ] } },
{ "type": "Feature", "properties": { "name": "Klinik Medipulse Kepong", "name:en": null, "amenity": "clinic", "building": null, "healthcare": "clinic", "healthcare:speciality": null, "operator:type": null, "capacity:persons": null, "addr:full": null, "addr:city": null, "source": null, "name:ms": "Klinik Medipulse Kepong", "osm_id": 7317774154, "osm_type": "nodes" }, "geometry": { "type": "Point", "coordinates": [ 101.6441046, 3.2180881 ] } },
{ "type": "Feature", "properties": { "name": "United Health Clinic", "name:en": "United Health Clinic", "amenity": "clinic", "building": null, "healthcare": "clinic", "healthcare:speciality": null, "operator:type": null, "capacity:persons": null, "addr:full": null, "addr:city": null, "source": "https://kartaview.org/details/2737138/565/track-info", "name:ms": null, "osm_id": 7317774153, "osm_type": "nodes" }, "geometry": { "type": "Point", "coordinates": [ 101.6412441, 3.2205957 ] } },
{ "type": "Feature", "properties": { "name": "Klinik Mediviron", "name:en": null, "amenity": "clinic", "building": null, "healthcare": "clinic", "healthcare:speciality": null, "operator:type": null, "capacity:persons": null, "addr:full": null, "addr:city": "Puchong", "source": null, "name:ms": "Klinik Mediviron", "osm_id": 4707456601, "osm_type": "nodes" }, "geometry": { "type": "Point", "coordinates": [ 101.6469666, 3.04924 ] } },
{ "type": "Feature", "properties": { "name": "Klinik Dr Bazilah", "name:en": null, "amenity": "clinic", "building": null, "healthcare": "clinic", "healthcare:speciality": "dermatology;general", "operator:type": null, "capacity:persons": null, "addr:full": null, "addr:city": null, "source": null, "name:ms": null, "osm_id": 8663780117, "osm_type": "nodes" }, "geometry": { "type": "Point", "coordinates": [ 101.5472311, 3.0785403 ] } },
{ "type": "Feature", "properties": { "name": "Klinik Kesihatan Bukit Serampang", "name:en": null, "amenity": "clinic", "building": null, "healthcare": "clinic", "healthcare:speciality": null, "operator:type": "government", "capacity:persons": null, "addr:full": null, "addr:city": null, "source": null, "name:ms": "Klinik Kesihatan Bukit Serampang", "osm_id": 303182662, "osm_type": "nodes" }, "geometry": { "type": "Point", "coordinates": [ 102.7844333, 2.3625188 ] } },
{ "type": "Feature", "properties": { "name": "Klinik Edina", "name:en": null, "amenity": "doctors", "building": null, "healthcare": "doctor", "healthcare:speciality": null, "operator:type": null, "capacity:persons": null, "addr:full": null, "addr:city": "Cameron Highlands", "source": null, "name:ms": "Klinik Edina", "osm_id": 4674753736, "osm_type": "nodes" }, "geometry": { "type": "Point", "coordinates": [ 101.3847676, 4.4146507 ] } },
{ "type": "Feature", "properties": { "name": "Klinik Nova", "name:en": null, "amenity": "clinic", "building": null, "healthcare": "clinic", "healthcare:speciality": null, "operator:type": null, "capacity:persons": null, "addr:full": null, "addr:city": null, "source": null, "name:ms": null, "osm_id": 12909221077, "osm_type": "nodes" }, "geometry": { "type": "Point", "coordinates": [ 103.4432765, 4.6159758 ] } },
{ "type": "Feature", "properties": { "name": "Premier Clinic", "name:en": null, "amenity": "clinic", "building": null, "healthcare": "clinic", "healthcare:speciality": null, "operator:type": null, "capacity:persons": null, "addr:full": null, "addr:city": null, "source": null, "name:ms": null, "osm_id": 12913605775, "osm_type": "nodes" }, "geometry": { "type": "Point", "coordinates": [ 101.7173369, 3.1619878 ] } },
{ "type": "Feature", "properties": { "name": "ALPRO Pharmacy Sunway Perdana", "name:en": null, "amenity": "pharmacy", "building": null, "healthcare": "pharmacy", "healthcare:speciality": null, "operator:type": null, "capacity:persons": null, "addr:full": null, "addr:city": "Seberang Jaya", "source": null, "name:ms": null, "osm_id": 12060334680, "osm_type": "nodes" }, "geometry": { "type": "Point", "coordinates": [ 100.3999272, 5.3970928 ] } },
{ "type": "Feature", "properties": { "name": "Pusat Pakar Perubatan Anwar", "name:en": null, "amenity": "clinic", "building": null, "healthcare": "clinic", "healthcare:speciality": null, "operator:type": null, "capacity:persons": null, "addr:full": null, "addr:city": null, "source": null, "name:ms": null, "osm_id": 12285665665, "osm_type": "nodes" }, "geometry": { "type": "Point", "coordinates": [ 100.3998276, 5.396366 ] } },
{ "type": "Feature", "properties": { "name": "Big Pharmacy", "name:en": null, "amenity": "pharmacy", "building": null, "healthcare": "pharmacy", "healthcare:speciality": null, "operator:type": null, "capacity:persons": null, "addr:full": null, "addr:city": "Seberang Jaya", "source": null, "name:ms": null, "osm_id": 12060325354, "osm_type": "nodes" }, "geometry": { "type": "Point", "coordinates": [ 100.3999108, 5.3970052 ] } },
{ "type": "Feature", "properties": { "name": "Klinik Desa Parit Haji Wahab", "name:en": null, "amenity": "clinic", "building": null, "healthcare": "clinic", "healthcare:speciality": null, "operator:type": "government", "capacity:persons": null, "addr:full": null, "addr:city": null, "source": null, "name:ms": null, "osm_id": 12422703470, "osm_type": "nodes" }, "geometry": { "type": "Point", "coordinates": [ 100.4267831, 5.0880915 ] } },
{ "type": "Feature", "properties": { "name": "Klinik Kesihatan Sungai Besi", "name:en": null, "amenity": "clinic", "building": null, "healthcare": "clinic", "healthcare:speciality": null, "operator:type": "government", "capacity:persons": null, "addr:full": null, "addr:city": null, "source": null, "name:ms": "Klinik Kesihatan Sungai Besi", "osm_id": 8045758392, "osm_type": "nodes" }, "geometry": { "type": "Point", "coordinates": [ 101.7112243, 3.0623274 ] } },
{ "type": "Feature", "properties": { "name": "Klinik Pertama", "name:en": null, "amenity": "clinic", "building": null, "healthcare": "clinic", "healthcare:speciality": null, "operator:type": null, "capacity:persons": null, "addr:full": null, "addr:city": "Kuala Lumpur", "source": null, "name:ms": "Klinik Pertama", "osm_id": 9646411451, "osm_type": "nodes" }, "geometry": { "type": "Point", "coordinates": [ 101.7100087, 3.0629264 ] } },
{ "type": "Feature", "properties": { "name": "Farmasi Pahang", "name:en": "Pahang Pharmacy", "amenity": "pharmacy", "building": null, "healthcare": "pharmacy", "healthcare:speciality": null, "operator:type": null, "capacity:persons": null, "addr:full": null, "addr:city": null, "source": null, "name:ms": "Farmasi Pahang", "osm_id": 6604180685, "osm_type": "nodes" }, "geometry": { "type": "Point", "coordinates": [ 102.0528882, 4.1888433 ] } },
{ "type": "Feature", "properties": { "name": "Hospital Kota Kinabatangan", "name:en": null, "amenity": "hospital", "building": null, "healthcare": null, "healthcare:speciality": null, "operator:type": null, "capacity:persons": null, "addr:full": null, "addr:city": null, "source": null, "name:ms": null, "osm_id": 6147237286, "osm_type": "nodes" }, "geometry": { "type": "Point", "coordinates": [ 117.8506346, 5.5846641 ] } },
{ "type": "Feature", "properties": { "name": "Klinik Tampin", "name:en": "Tampin Clinic", "amenity": "clinic", "building": null, "healthcare": "clinic", "healthcare:speciality": null, "operator:type": null, "capacity:persons": null, "addr:full": null, "addr:city": null, "source": "https://openstreetcam.org/details/2326962/2259/track-info", "name:ms": "Klinik Tampin", "osm_id": 7802951217, "osm_type": "nodes" }, "geometry": { "type": "Point", "coordinates": [ 102.2304706, 2.4628037 ] } },
{ "type": "Feature", "properties": { "name": "Farmasi Alpro", "name:en": null, "amenity": "pharmacy", "building": null, "healthcare": "pharmacy", "healthcare:speciality": null, "operator:type": null, "capacity:persons": null, "addr:full": null, "addr:city": null, "source": null, "name:ms": null, "osm_id": 10255816087, "osm_type": "nodes" }, "geometry": { "type": "Point", "coordinates": [ 101.9381489, 2.7268865 ] } },
{ "type": "Feature", "properties": { "name": "Klinik Kee", "name:en": null, "amenity": "clinic", "building": null, "healthcare": "clinic", "healthcare:speciality": null, "operator:type": null, "capacity:persons": null, "addr:full": null, "addr:city": null, "source": null, "name:ms": null, "osm_id": 12537874908, "osm_type": "nodes" }, "geometry": { "type": "Point", "coordinates": [ 102.9293531, 1.8525195 ] } },
{ "type": "Feature", "properties": { "name": "Klinik Koay", "name:en": null, "amenity": "clinic", "building": null, "healthcare": "clinic", "healthcare:speciality": null, "operator:type": null, "capacity:persons": null, "addr:full": null, "addr:city": null, "source": null, "name:ms": null, "osm_id": 9472075290, "osm_type": "nodes" }, "geometry": { "type": "Point", "coordinates": [ 100.3116101, 5.4320421 ] } },
{ "type": "Feature", "properties": { "name": "ROPHEKA(M) SDN. BHD. Myhighst", "name:en": null, "amenity": null, "building": null, "healthcare": "psychotherapist", "healthcare:speciality": null, "operator:type": null, "capacity:persons": null, "addr:full": null, "addr:city": "Seremban", "source": null, "name:ms": null, "osm_id": 9777969327, "osm_type": "nodes" }, "geometry": { "type": "Point", "coordinates": [ 101.9202718, 2.7159011 ] } },
{ "type": "Feature", "properties": { "name": "Klinik Famili Soo", "name:en": null, "amenity": "clinic", "building": null, "healthcare": "clinic", "healthcare:speciality": "general", "operator:type": null, "capacity:persons": null, "addr:full": null, "addr:city": "Kuala Lumpur", "source": null, "name:ms": null, "osm_id": 4705755159, "osm_type": "nodes" }, "geometry": { "type": "Point", "coordinates": [ 101.6872093, 3.090961 ] } },
{ "type": "Feature", "properties": { "name": "Klinik Pakar Ortodontik Muar", "name:en": null, "amenity": "clinic", "building": null, "healthcare": "clinic", "healthcare:speciality": "orthodontics", "operator:type": "government", "capacity:persons": null, "addr:full": null, "addr:city": null, "source": null, "name:ms": null, "osm_id": 8370639208, "osm_type": "nodes" }, "geometry": { "type": "Point", "coordinates": [ 102.5640848, 2.0447204 ] } },
{ "type": "Feature", "properties": { "name": "Tey Specialist Maternity & Gynae", "name:en": null, "amenity": "doctors", "building": null, "healthcare": "doctor", "healthcare:speciality": null, "operator:type": null, "capacity:persons": null, "addr:full": null, "addr:city": null, "source": null, "name:ms": null, "osm_id": 6572413684, "osm_type": "nodes" }, "geometry": { "type": "Point", "coordinates": [ 102.5658651, 2.044384 ] } },
{ "type": "Feature", "properties": { "name": "Watsons", "name:en": null, "amenity": "pharmacy", "building": null, "healthcare": "pharmacy", "healthcare:speciality": null, "operator:type": null, "capacity:persons": null, "addr:full": null, "addr:city": null, "source": null, "name:ms": null, "osm_id": 11158356656, "osm_type": "nodes" }, "geometry": { "type": "Point", "coordinates": [ 101.6164338, 3.0224633 ] } },
{ "type": "Feature", "properties": { "name": "Guardian", "name:en": null, "amenity": "pharmacy", "building": null, "healthcare": "pharmacy", "healthcare:speciality": null, "operator:type": null, "capacity:persons": null, "addr:full": null, "addr:city": "Miri", "source": null, "name:ms": null, "osm_id": 11539179369, "osm_type": "nodes" }, "geometry": { "type": "Point", "coordinates": [ 114.0378173, 4.4498498 ] } },
{ "type": "Feature", "properties": { "name": "Klinik Sri Pinang dan Surgeri", "name:en": null, "amenity": "clinic", "building": null, "healthcare": "clinic", "healthcare:speciality": null, "operator:type": null, "capacity:persons": null, "addr:full": null, "addr:city": null, "source": "https://www.mapillary.com/app/?pKey=XNgAWmoSJiZsh32o20GTuI&focus=photo", "name:ms": null, "osm_id": 6604160785, "osm_type": "nodes" }, "geometry": { "type": "Point", "coordinates": [ 100.3288378, 5.3986364 ] } },
{ "type": "Feature", "properties": { "name": "Kompleks Dewan Bedah (IUN)", "name:en": null, "amenity": "hospital", "building": null, "healthcare": "hospital", "healthcare:speciality": null, "operator:type": "government", "capacity:persons": null, "addr:full": null, "addr:city": "Kuala Lumpur", "source": null, "name:ms": "Kompleks Dewan Bedah (IUN)", "osm_id": 5993435846, "osm_type": "nodes" }, "geometry": { "type": "Point", "coordinates": [ 101.6998563, 3.1729603 ] } },
{ "type": "Feature", "properties": { "name": "Komples Rawatan & Rawatan Harian (SCACC)", "name:en": null, "amenity": "hospital", "building": null, "healthcare": "hospital", "healthcare:speciality": null, "operator:type": "government", "capacity:persons": null, "addr:full": null, "addr:city": null, "source": null, "name:ms": "Komples Rawatan & Rawatan Harian (SCACC)", "osm_id": 6113367174, "osm_type": "nodes" }, "geometry": { "type": "Point", "coordinates": [ 101.6991407, 3.17061 ] } },
{ "type": "Feature", "properties": { "name": "Klinik Alam Medic", "name:en": null, "amenity": "clinic", "building": null, "healthcare": "clinic", "healthcare:speciality": null, "operator:type": null, "capacity:persons": null, "addr:full": null, "addr:city": null, "source": null, "name:ms": null, "osm_id": 12941862644, "osm_type": "nodes" }, "geometry": { "type": "Point", "coordinates": [ 101.6921482, 3.1847035 ] } },
{ "type": "Feature", "properties": { "name": "Klinik Afya", "name:en": null, "amenity": "clinic", "building": null, "healthcare": null, "healthcare:speciality": null, "operator:type": null, "capacity:persons": null, "addr:full": null, "addr:city": null, "source": null, "name:ms": null, "osm_id": 12941782506, "osm_type": "nodes" }, "geometry": { "type": "Point", "coordinates": [ 101.7072039, 3.19596 ] } },
{ "type": "Feature", "properties": { "name": "Klinik Desa Kampung Labu", "name:en": null, "amenity": "clinic", "building": null, "healthcare": "clinic", "healthcare:speciality": null, "operator:type": null, "capacity:persons": null, "addr:full": null, "addr:city": null, "source": null, "name:ms": null, "osm_id": 9810551649, "osm_type": "nodes" }, "geometry": { "type": "Point", "coordinates": [ 102.3718345, 4.1675855 ] } },
{ "type": "Feature", "properties": { "name": "Farmasi Health Point", "name:en": null, "amenity": "pharmacy", "building": null, "healthcare": "pharmacy", "healthcare:speciality": null, "operator:type": null, "capacity:persons": null, "addr:full": null, "addr:city": "Kuala Lumpur", "source": null, "name:ms": "Farmasi Health Point", "osm_id": 1822560064, "osm_type": "nodes" }, "geometry": { "type": "Point", "coordinates": [ 101.6835519, 3.1302379 ] } },
{ "type": "Feature", "properties": { "name": "Kien San Trading", "name:en": "Kien San Trading", "amenity": "pharmacy", "building": null, "healthcare": "pharmacy", "healthcare:speciality": null, "operator:type": null, "capacity:persons": null, "addr:full": null, "addr:city": "Benta", "source": null, "name:ms": null, "osm_id": 9809114495, "osm_type": "nodes" }, "geometry": { "type": "Point", "coordinates": [ 101.9656168, 4.0170087 ] } },
{ "type": "Feature", "properties": { "name": "Benta Health Clinic", "name:en": "Benta Health Clinic", "amenity": "clinic", "building": null, "healthcare": "clinic", "healthcare:speciality": null, "operator:type": null, "capacity:persons": null, "addr:full": null, "addr:city": null, "source": null, "name:ms": null, "osm_id": 9808393614, "osm_type": "nodes" }, "geometry": { "type": "Point", "coordinates": [ 101.960455, 4.0132713 ] } },
{ "type": "Feature", "properties": { "name": "Pusat Perubatan Tradisional Cina Nature Concept TCM Healthcare", "name:en": null, "amenity": "doctors", "building": null, "healthcare": null, "healthcare:speciality": null, "operator:type": null, "capacity:persons": null, "addr:full": null, "addr:city": null, "source": null, "name:ms": null, "osm_id": 7555547033, "osm_type": "nodes" }, "geometry": { "type": "Point", "coordinates": [ 103.6803399, 1.518417 ] } },
{ "type": "Feature", "properties": { "name": "Klinik Desa Kuala Mai", "name:en": null, "amenity": "clinic", "building": null, "healthcare": "clinic", "healthcare:speciality": null, "operator:type": null, "capacity:persons": null, "addr:full": null, "addr:city": null, "source": null, "name:ms": null, "osm_id": 7296201063, "osm_type": "nodes" }, "geometry": { "type": "Point", "coordinates": [ 102.3661737, 3.7684264 ] } },
{ "type": "Feature", "properties": { "name": "Guardian", "name:en": null, "amenity": "pharmacy", "building": null, "healthcare": "pharmacy", "healthcare:speciality": null, "operator:type": null, "capacity:persons": null, "addr:full": null, "addr:city": null, "source": null, "name:ms": null, "osm_id": 12945875165, "osm_type": "nodes" }, "geometry": { "type": "Point", "coordinates": [ 111.4677096, 1.2203695 ] } },
{ "type": "Feature", "properties": { "name": "Klinik Dr. Ko", "name:en": null, "amenity": "clinic", "building": null, "healthcare": "clinic", "healthcare:speciality": null, "operator:type": null, "capacity:persons": null, "addr:full": null, "addr:city": null, "source": null, "name:ms": null, "osm_id": 12944286021, "osm_type": "nodes" }, "geometry": { "type": "Point", "coordinates": [ 101.4530188, 3.2319165 ] } },
{ "type": "Feature", "properties": { "name": "Klinik Desa Jorak", "name:en": null, "amenity": "hospital", "building": null, "healthcare": null, "healthcare:speciality": null, "operator:type": null, "capacity:persons": null, "addr:full": null, "addr:city": null, "source": null, "name:ms": null, "osm_id": 274829066, "osm_type": "nodes" }, "geometry": { "type": "Point", "coordinates": [ 102.6455409, 2.129118 ] } },
{ "type": "Feature", "properties": { "name": "Bangsar Dental Specialist Center", "name:en": null, "amenity": "dentist", "building": null, "healthcare": "dentist", "healthcare:speciality": null, "operator:type": null, "capacity:persons": null, "addr:full": null, "addr:city": null, "source": null, "name:ms": null, "osm_id": 7249576986, "osm_type": "nodes" }, "geometry": { "type": "Point", "coordinates": [ 101.6709807, 3.1310416 ] } },
{ "type": "Feature", "properties": { "name": "Poliklinik Maya 24 Jam", "name:en": null, "amenity": "clinic", "building": null, "healthcare": "clinic", "healthcare:speciality": "general", "operator:type": null, "capacity:persons": null, "addr:full": null, "addr:city": null, "source": null, "name:ms": null, "osm_id": 11921552633, "osm_type": "nodes" }, "geometry": { "type": "Point", "coordinates": [ 102.2694193, 6.1507306 ] } },
{ "type": "Feature", "properties": { "name": "Jaspal Clinic", "name:en": null, "amenity": "clinic", "building": null, "healthcare": "clinic", "healthcare:speciality": null, "operator:type": null, "capacity:persons": null, "addr:full": null, "addr:city": null, "source": null, "name:ms": null, "osm_id": 4269778697, "osm_type": "nodes" }, "geometry": { "type": "Point", "coordinates": [ 101.4282599, 3.0285805 ] } },
{ "type": "Feature", "properties": { "name": "ProCare (Bangsar) Dental Surgery", "name:en": null, "amenity": "dentist", "building": null, "healthcare": "dentist", "healthcare:speciality": null, "operator:type": null, "capacity:persons": null, "addr:full": null, "addr:city": null, "source": null, "name:ms": null, "osm_id": 7250130085, "osm_type": "nodes" }, "geometry": { "type": "Point", "coordinates": [ 101.6710502, 3.1324295 ] } },
{ "type": "Feature", "properties": { "name": "Poliklinik Bangsar", "name:en": null, "amenity": "doctors", "building": null, "healthcare": "doctor", "healthcare:speciality": null, "operator:type": null, "capacity:persons": null, "addr:full": null, "addr:city": null, "source": null, "name:ms": null, "osm_id": 7249557986, "osm_type": "nodes" }, "geometry": { "type": "Point", "coordinates": [ 101.6705669, 3.1318075 ] } },
{ "type": "Feature", "properties": { "name": "Urban Smile Dental Clinic", "name:en": null, "amenity": "dentist", "building": null, "healthcare": "dentist", "healthcare:speciality": null, "operator:type": null, "capacity:persons": null, "addr:full": null, "addr:city": null, "source": null, "name:ms": null, "osm_id": 7249570086, "osm_type": "nodes" }, "geometry": { "type": "Point", "coordinates": [ 101.6705641, 3.1316897 ] } },
{ "type": "Feature", "properties": { "name": "Betterlife Pharmacy", "name:en": null, "amenity": "pharmacy", "building": null, "healthcare": "pharmacy", "healthcare:speciality": null, "operator:type": null, "capacity:persons": null, "addr:full": null, "addr:city": null, "source": null, "name:ms": null, "osm_id": 9801595053, "osm_type": "nodes" }, "geometry": { "type": "Point", "coordinates": [ 100.3114528, 5.4317425 ] } },
{ "type": "Feature", "properties": { "name": "Wellings Pharmacy", "name:en": null, "amenity": "pharmacy", "building": null, "healthcare": "pharmacy", "healthcare:speciality": null, "operator:type": null, "capacity:persons": null, "addr:full": null, "addr:city": null, "source": null, "name:ms": null, "osm_id": 1691647722, "osm_type": "nodes" }, "geometry": { "type": "Point", "coordinates": [ 100.3101844, 5.4327057 ] } },
{ "type": "Feature", "properties": { "name": "Luke Klinik", "name:en": null, "amenity": "clinic", "building": null, "healthcare": "clinic", "healthcare:speciality": null, "operator:type": null, "capacity:persons": null, "addr:full": null, "addr:city": null, "source": null, "name:ms": null, "osm_id": 9472075259, "osm_type": "nodes" }, "geometry": { "type": "Point", "coordinates": [ 100.311076, 5.4323793 ] } },
{ "type": "Feature", "properties": { "name": "Goh Dental", "name:en": null, "amenity": "dentist", "building": null, "healthcare": "dentist", "healthcare:speciality": "implantology;orthodontics", "operator:type": null, "capacity:persons": null, "addr:full": null, "addr:city": null, "source": null, "name:ms": null, "osm_id": 9801595041, "osm_type": "nodes" }, "geometry": { "type": "Point", "coordinates": [ 100.3105922, 5.4320592 ] } },
{ "type": "Feature", "properties": { "name": "BIG Pharmacy", "name:en": null, "amenity": "pharmacy", "building": null, "healthcare": "pharmacy", "healthcare:speciality": null, "operator:type": null, "capacity:persons": null, "addr:full": null, "addr:city": null, "source": null, "name:ms": null, "osm_id": 9472075246, "osm_type": "nodes" }, "geometry": { "type": "Point", "coordinates": [ 100.3111167, 5.4317691 ] } },
{ "type": "Feature", "properties": { "name": "Wellcome Pharmacy", "name:en": null, "amenity": "pharmacy", "building": null, "healthcare": "pharmacy", "healthcare:speciality": null, "operator:type": null, "capacity:persons": null, "addr:full": null, "addr:city": "Petaling Jaya", "source": null, "name:ms": null, "osm_id": 1541931632, "osm_type": "nodes" }, "geometry": { "type": "Point", "coordinates": [ 101.6456923, 3.0989029 ] } },
{ "type": "Feature", "properties": { "name": "Klinik Pergigian Life Dental", "name:en": null, "amenity": "dentist", "building": null, "healthcare": "dentist", "healthcare:speciality": null, "operator:type": null, "capacity:persons": null, "addr:full": null, "addr:city": null, "source": null, "name:ms": null, "osm_id": 12284993303, "osm_type": "nodes" }, "geometry": { "type": "Point", "coordinates": [ 110.3481989, 1.5022014 ] } },
{ "type": "Feature", "properties": { "name": "Tan Specialist Child & Family Clinic", "name:en": null, "amenity": "clinic", "building": null, "healthcare": "clinic", "healthcare:speciality": null, "operator:type": null, "capacity:persons": null, "addr:full": null, "addr:city": null, "source": null, "name:ms": null, "osm_id": 12284972697, "osm_type": "nodes" }, "geometry": { "type": "Point", "coordinates": [ 110.348202, 1.5012646 ] } },
{ "type": "Feature", "properties": { "name": "Wee Care Pharmacy", "name:en": null, "amenity": "pharmacy", "building": null, "healthcare": "pharmacy", "healthcare:speciality": null, "operator:type": null, "capacity:persons": null, "addr:full": null, "addr:city": null, "source": null, "name:ms": null, "osm_id": 12284691664, "osm_type": "nodes" }, "geometry": { "type": "Point", "coordinates": [ 110.302293, 1.4951766 ] } },
{ "type": "Feature", "properties": { "name": "Prestige Orthodontic (Braces) Clinic", "name:en": null, "amenity": "dentist", "building": null, "healthcare": "dentist", "healthcare:speciality": "orthodontics", "operator:type": null, "capacity:persons": null, "addr:full": null, "addr:city": null, "source": null, "name:ms": null, "osm_id": 9796039230, "osm_type": "nodes" }, "geometry": { "type": "Point", "coordinates": [ 100.3127054, 5.4301386 ] } },
{ "type": "Feature", "properties": { "name": "Farmasi Ich Liebe Dich", "name:en": null, "amenity": "pharmacy", "building": null, "healthcare": null, "healthcare:speciality": null, "operator:type": null, "capacity:persons": null, "addr:full": null, "addr:city": "Kajang", "source": null, "name:ms": null, "osm_id": 4894231480, "osm_type": "nodes" }, "geometry": { "type": "Point", "coordinates": [ 101.7047916, 2.8969773 ] } },
{ "type": "Feature", "properties": { "name": "Penang Dental Surgery", "name:en": null, "amenity": "dentist", "building": null, "healthcare": "dentist", "healthcare:speciality": null, "operator:type": null, "capacity:persons": null, "addr:full": null, "addr:city": null, "source": null, "name:ms": null, "osm_id": 9796039232, "osm_type": "nodes" }, "geometry": { "type": "Point", "coordinates": [ 100.3128541, 5.4300103 ] } },
{ "type": "Feature", "properties": { "name": "Chan May May Optometrist", "name:en": null, "amenity": null, "building": null, "healthcare": "optometrist", "healthcare:speciality": null, "operator:type": null, "capacity:persons": null, "addr:full": null, "addr:city": null, "source": null, "name:ms": null, "osm_id": 9801595049, "osm_type": "nodes" }, "geometry": { "type": "Point", "coordinates": [ 100.3112072, 5.4323121 ] } },
{ "type": "Feature", "properties": { "name": "PATHLAB Laboratory", "name:en": null, "amenity": null, "building": null, "healthcare": "laboratory", "healthcare:speciality": null, "operator:type": null, "capacity:persons": null, "addr:full": null, "addr:city": null, "source": null, "name:ms": null, "osm_id": 8335670005, "osm_type": "nodes" }, "geometry": { "type": "Point", "coordinates": [ 101.6713954, 3.1327538 ] } },
{ "type": "Feature", "properties": { "name": "Kedai Ubat Ban San Hoe", "name:en": null, "amenity": null, "building": null, "healthcare": "alternative", "healthcare:speciality": "traditional_chinese_medicine", "operator:type": null, "capacity:persons": null, "addr:full": null, "addr:city": null, "source": null, "name:ms": null, "osm_id": 9794841133, "osm_type": "nodes" }, "geometry": { "type": "Point", "coordinates": [ 100.3125801, 5.4305732 ] } },
{ "type": "Feature", "properties": { "name": "Alpro", "name:en": null, "amenity": "pharmacy", "building": null, "healthcare": "pharmacy", "healthcare:speciality": null, "operator:type": null, "capacity:persons": null, "addr:full": null, "addr:city": "Port Dickson", "source": null, "name:ms": null, "osm_id": 4859539437, "osm_type": "nodes" }, "geometry": { "type": "Point", "coordinates": [ 101.8017959, 2.5238651 ] } },
{ "type": "Feature", "properties": { "name": "Klinik Pergigian Lim", "name:en": "Lim Dental Surgery", "amenity": "dentist", "building": null, "healthcare": "dentist", "healthcare:speciality": null, "operator:type": null, "capacity:persons": null, "addr:full": null, "addr:city": "Port Dickson", "source": null, "name:ms": null, "osm_id": 4861632592, "osm_type": "nodes" }, "geometry": { "type": "Point", "coordinates": [ 101.7962059, 2.523258 ] } },
{ "type": "Feature", "properties": { "name": "Ang Kelinik", "name:en": null, "amenity": "doctors", "building": null, "healthcare": "doctor", "healthcare:speciality": null, "operator:type": null, "capacity:persons": null, "addr:full": null, "addr:city": "Port Dickson", "source": null, "name:ms": null, "osm_id": 4861632601, "osm_type": "nodes" }, "geometry": { "type": "Point", "coordinates": [ 101.7962529, 2.5222857 ] } },
{ "type": "Feature", "properties": { "name": "Klinik Asia", "name:en": null, "amenity": "doctors", "building": null, "healthcare": "doctor", "healthcare:speciality": null, "operator:type": null, "capacity:persons": null, "addr:full": null, "addr:city": "Port Dickson", "source": null, "name:ms": null, "osm_id": 4861632629, "osm_type": "nodes" }, "geometry": { "type": "Point", "coordinates": [ 101.7962273, 2.5244102 ] } },
{ "type": "Feature", "properties": { "name": "Guardian", "name:en": null, "amenity": "pharmacy", "building": null, "healthcare": "pharmacy", "healthcare:speciality": null, "operator:type": null, "capacity:persons": null, "addr:full": null, "addr:city": "Miri", "source": null, "name:ms": null, "osm_id": 12281574801, "osm_type": "nodes" }, "geometry": { "type": "Point", "coordinates": [ 114.0128354, 4.4154491 ] } },
{ "type": "Feature", "properties": { "name": "Kedai Ubat Chee Shan", "name:en": null, "amenity": "pharmacy", "building": null, "healthcare": "pharmacy", "healthcare:speciality": null, "operator:type": null, "capacity:persons": null, "addr:full": null, "addr:city": "Ipoh", "source": null, "name:ms": null, "osm_id": 8282764393, "osm_type": "nodes" }, "geometry": { "type": "Point", "coordinates": [ 101.1384369, 4.5725306 ] } },
{ "type": "Feature", "properties": { "name": "U.n.i. Farmasi", "name:en": null, "amenity": "pharmacy", "building": null, "healthcare": "pharmacy", "healthcare:speciality": null, "operator:type": null, "capacity:persons": null, "addr:full": null, "addr:city": null, "source": null, "name:ms": null, "osm_id": 12651142829, "osm_type": "nodes" }, "geometry": { "type": "Point", "coordinates": [ 101.6562985, 2.8007147 ] } },
{ "type": "Feature", "properties": { "name": "Guardian", "name:en": null, "amenity": "pharmacy", "building": null, "healthcare": "pharmacy", "healthcare:speciality": null, "operator:type": null, "capacity:persons": null, "addr:full": null, "addr:city": null, "source": null, "name:ms": null, "osm_id": 6792232912, "osm_type": "nodes" }, "geometry": { "type": "Point", "coordinates": [ 100.7421532, 4.8526707 ] } },
{ "type": "Feature", "properties": { "name": "Hospital Beaufort", "name:en": "Beaufort Hospital", "amenity": "hospital", "building": null, "healthcare": "hospital", "healthcare:speciality": null, "operator:type": "government", "capacity:persons": null, "addr:full": null, "addr:city": null, "source": null, "name:ms": "Hospital Beaufort", "osm_id": 1631259169, "osm_type": "nodes" }, "geometry": { "type": "Point", "coordinates": [ 115.7405925, 5.3509606 ] } },
{ "type": "Feature", "properties": { "name": null, "name:en": null, "amenity": "hospital", "building": null, "healthcare": "hospital", "healthcare:speciality": null, "operator:type": null, "capacity:persons": null, "addr:full": null, "addr:city": null, "source": null, "name:ms": null, "osm_id": 12280477499, "osm_type": "nodes" }, "geometry": { "type": "Point", "coordinates": [ 115.7405903, 5.3509697 ] } },
{ "type": "Feature", "properties": { "name": "Multicare Pharmacy", "name:en": null, "amenity": "pharmacy", "building": null, "healthcare": "pharmacy", "healthcare:speciality": null, "operator:type": null, "capacity:persons": null, "addr:full": null, "addr:city": "Seremban", "source": null, "name:ms": null, "osm_id": 4955399912, "osm_type": "nodes" }, "geometry": { "type": "Point", "coordinates": [ 101.9117923, 2.6986028 ] } },
{ "type": "Feature", "properties": { "name": "Pusat Pakar Mata Bangi", "name:en": null, "amenity": null, "building": null, "healthcare": "optometrist", "healthcare:speciality": null, "operator:type": null, "capacity:persons": null, "addr:full": null, "addr:city": "Bandar Baru Bangi", "source": null, "name:ms": null, "osm_id": 12240441321, "osm_type": "nodes" }, "geometry": { "type": "Point", "coordinates": [ 101.7793592, 2.9651731 ] } },
{ "type": "Feature", "properties": { "name": "Wong's TCM Treatment Center", "name:en": null, "amenity": null, "building": null, "healthcare": "alternative", "healthcare:speciality": "traditional_chinese_medicine", "operator:type": null, "capacity:persons": null, "addr:full": null, "addr:city": "Penampang", "source": null, "name:ms": null, "osm_id": 2483240638, "osm_type": "nodes" }, "geometry": { "type": "Point", "coordinates": [ 116.0770923, 5.9270535 ] } },
{ "type": "Feature", "properties": { "name": "Perniagaan Waikom", "name:en": null, "amenity": "pharmacy", "building": null, "healthcare": "pharmacy", "healthcare:speciality": null, "operator:type": null, "capacity:persons": null, "addr:full": null, "addr:city": null, "source": null, "name:ms": null, "osm_id": 8276978224, "osm_type": "nodes" }, "geometry": { "type": "Point", "coordinates": [ 101.1239159, 4.5766465 ] } },
{ "type": "Feature", "properties": { "name": "Mediklinik Keluarga", "name:en": null, "amenity": "clinic", "building": null, "healthcare": "clinic", "healthcare:speciality": null, "operator:type": null, "capacity:persons": null, "addr:full": null, "addr:city": null, "source": null, "name:ms": null, "osm_id": 8276891550, "osm_type": "nodes" }, "geometry": { "type": "Point", "coordinates": [ 101.1313909, 4.5775052 ] } },
{ "type": "Feature", "properties": { "name": "Tcm herbalcare enterprise", "name:en": null, "amenity": "clinic", "building": null, "healthcare": "clinic", "healthcare:speciality": null, "operator:type": null, "capacity:persons": null, "addr:full": null, "addr:city": null, "source": null, "name:ms": null, "osm_id": 6807222085, "osm_type": "nodes" }, "geometry": { "type": "Point", "coordinates": [ 101.1248356, 4.57673 ] } },
{ "type": "Feature", "properties": { "name": "Klinik I-Medic", "name:en": null, "amenity": "clinic", "building": null, "healthcare": "clinic", "healthcare:speciality": null, "operator:type": null, "capacity:persons": null, "addr:full": null, "addr:city": null, "source": null, "name:ms": null, "osm_id": 8276978223, "osm_type": "nodes" }, "geometry": { "type": "Point", "coordinates": [ 101.1237018, 4.5770791 ] } },
{ "type": "Feature", "properties": { "name": "Perniagaan Kinta Well Trading", "name:en": null, "amenity": "pharmacy", "building": null, "healthcare": "pharmacy", "healthcare:speciality": null, "operator:type": null, "capacity:persons": null, "addr:full": null, "addr:city": null, "source": null, "name:ms": null, "osm_id": 8276978219, "osm_type": "nodes" }, "geometry": { "type": "Point", "coordinates": [ 101.1236708, 4.5757311 ] } },
{ "type": "Feature", "properties": { "name": "i-Health Pharmacy Sdn. Bhd.", "name:en": null, "amenity": "pharmacy", "building": null, "healthcare": "pharmacy", "healthcare:speciality": null, "operator:type": null, "capacity:persons": null, "addr:full": null, "addr:city": null, "source": null, "name:ms": null, "osm_id": 8276891545, "osm_type": "nodes" }, "geometry": { "type": "Point", "coordinates": [ 101.1284974, 4.5775021 ] } },
{ "type": "Feature", "properties": { "name": "Poliklinik Taqwa", "name:en": null, "amenity": "clinic", "building": null, "healthcare": "clinic", "healthcare:speciality": null, "operator:type": null, "capacity:persons": null, "addr:full": null, "addr:city": null, "source": null, "name:ms": null, "osm_id": 8276891543, "osm_type": "nodes" }, "geometry": { "type": "Point", "coordinates": [ 101.1275591, 4.5787558 ] } },
{ "type": "Feature", "properties": { "name": "Poliklinik Ar-Ridzuan", "name:en": null, "amenity": "clinic", "building": null, "healthcare": "clinic", "healthcare:speciality": null, "operator:type": null, "capacity:persons": null, "addr:full": null, "addr:city": null, "source": null, "name:ms": null, "osm_id": 8276891544, "osm_type": "nodes" }, "geometry": { "type": "Point", "coordinates": [ 101.1275605, 4.5791577 ] } },
{ "type": "Feature", "properties": { "name": "Poliklinik Teoh & Ding", "name:en": null, "amenity": "clinic", "building": null, "healthcare": "clinic", "healthcare:speciality": null, "operator:type": null, "capacity:persons": null, "addr:full": null, "addr:city": null, "source": null, "name:ms": null, "osm_id": 8276891547, "osm_type": "nodes" }, "geometry": { "type": "Point", "coordinates": [ 101.1303701, 4.5774851 ] } },
{ "type": "Feature", "properties": { "name": "Klinik Pergigian Chong", "name:en": null, "amenity": "dentist", "building": null, "healthcare": "dentist", "healthcare:speciality": null, "operator:type": null, "capacity:persons": null, "addr:full": null, "addr:city": null, "source": null, "name:ms": null, "osm_id": 8276978229, "osm_type": "nodes" }, "geometry": { "type": "Point", "coordinates": [ 101.1151171, 4.5719476 ] } },
{ "type": "Feature", "properties": { "name": "Klinik Bhajan", "name:en": null, "amenity": "clinic", "building": null, "healthcare": "clinic", "healthcare:speciality": null, "operator:type": null, "capacity:persons": null, "addr:full": null, "addr:city": null, "source": null, "name:ms": null, "osm_id": 8276978232, "osm_type": "nodes" }, "geometry": { "type": "Point", "coordinates": [ 101.1129813, 4.5716881 ] } },
{ "type": "Feature", "properties": { "name": "Klinik Kesihatan Kangar", "name:en": null, "amenity": "clinic", "building": null, "healthcare": "clinic", "healthcare:speciality": null, "operator:type": null, "capacity:persons": null, "addr:full": null, "addr:city": null, "source": null, "name:ms": null, "osm_id": 9779695040, "osm_type": "nodes" }, "geometry": { "type": "Point", "coordinates": [ 100.1904707, 6.4398406 ] } },
{ "type": "Feature", "properties": { "name": "Georgetown Pharmacy", "name:en": null, "amenity": "pharmacy", "building": null, "healthcare": "pharmacy", "healthcare:speciality": null, "operator:type": null, "capacity:persons": null, "addr:full": null, "addr:city": null, "source": null, "name:ms": null, "osm_id": 9779695113, "osm_type": "nodes" }, "geometry": { "type": "Point", "coordinates": [ 100.1949885, 6.4361794 ] } },
{ "type": "Feature", "properties": { "name": "Klinik Desa Separap", "name:en": null, "amenity": "doctors", "building": null, "healthcare": "doctor", "healthcare:speciality": null, "operator:type": null, "capacity:persons": null, "addr:full": null, "addr:city": null, "source": null, "name:ms": null, "osm_id": 341292181, "osm_type": "nodes" }, "geometry": { "type": "Point", "coordinates": [ 102.8673381, 1.9099433 ] } },
{ "type": "Feature", "properties": { "name": "Klinik Desa Sarang Buaya", "name:en": null, "amenity": "clinic", "building": null, "healthcare": "clinic", "healthcare:speciality": null, "operator:type": "government", "capacity:persons": null, "addr:full": null, "addr:city": null, "source": "https://www.mapillary.com/app/?pKey=6JhGbK2YvHjnpMYwM9B40i&focus=photo", "name:ms": null, "osm_id": 6038600188, "osm_type": "nodes" }, "geometry": { "type": "Point", "coordinates": [ 102.7671097, 1.8918785 ] } },
{ "type": "Feature", "properties": { "name": "Klinik Choong Wah Perak", "name:en": "Perak Choong Wah Clinic", "amenity": "clinic", "building": null, "healthcare": "clinic", "healthcare:speciality": null, "operator:type": null, "capacity:persons": null, "addr:full": null, "addr:city": "Ipoh", "source": "https://openstreetcam.org/details/2291394/7", "name:ms": null, "osm_id": 7673357232, "osm_type": "nodes" }, "geometry": { "type": "Point", "coordinates": [ 101.0856787, 4.5909233 ] } },
{ "type": "Feature", "properties": { "name": "Klinik Tan", "name:en": null, "amenity": "clinic", "building": null, "healthcare": "clinic", "healthcare:speciality": "general", "operator:type": "private", "capacity:persons": null, "addr:full": null, "addr:city": "Kuala Lumpur", "source": null, "name:ms": "Klinik Tan", "osm_id": 9450285248, "osm_type": "nodes" }, "geometry": { "type": "Point", "coordinates": [ 101.6834039, 3.1802336 ] } },
{ "type": "Feature", "properties": { "name": "Fisio Care Physiotherapy & Rehabilitation Centre", "name:en": null, "amenity": "clinic", "building": null, "healthcare": "clinic", "healthcare:speciality": null, "operator:type": null, "capacity:persons": null, "addr:full": null, "addr:city": null, "source": null, "name:ms": null, "osm_id": 7877125685, "osm_type": "nodes" }, "geometry": { "type": "Point", "coordinates": [ 101.5367185, 3.0064837 ] } },
{ "type": "Feature", "properties": { "name": "KLINIK MEDIVIRON HUTAN MELINTANG", "name:en": "Klinik Mediviron", "amenity": "clinic", "building": null, "healthcare": "clinic", "healthcare:speciality": "general", "operator:type": "private", "capacity:persons": null, "addr:full": null, "addr:city": "Hutan Melintang", "source": null, "name:ms": "Klinik Mediviron", "osm_id": 10823107308, "osm_type": "nodes" }, "geometry": { "type": "Point", "coordinates": [ 100.9390406, 3.8969367 ] } },
{ "type": "Feature", "properties": { "name": "W. Y. Leong", "name:en": null, "amenity": "clinic", "building": null, "healthcare": "clinic", "healthcare:speciality": null, "operator:type": null, "capacity:persons": null, "addr:full": null, "addr:city": null, "source": null, "name:ms": null, "osm_id": 12960688241, "osm_type": "nodes" }, "geometry": { "type": "Point", "coordinates": [ 101.5979942, 3.1194872 ] } },
{ "type": "Feature", "properties": { "name": "Woodlands", "name:en": null, "amenity": "pharmacy", "building": null, "healthcare": "pharmacy", "healthcare:speciality": null, "operator:type": null, "capacity:persons": null, "addr:full": null, "addr:city": null, "source": null, "name:ms": null, "osm_id": 7661265064, "osm_type": "nodes" }, "geometry": { "type": "Point", "coordinates": [ 101.5988381, 3.1204533 ] } },
{ "type": "Feature", "properties": { "name": "HOSPITAL PASIR MAS, LATI", "name:en": "HOSPITAL PASIR MAS, LATI", "amenity": "hospital", "building": null, "healthcare": null, "healthcare:speciality": null, "operator:type": null, "capacity:persons": null, "addr:full": null, "addr:city": null, "source": null, "name:ms": null, "osm_id": 4511513789, "osm_type": "nodes" }, "geometry": { "type": "Point", "coordinates": [ 102.1186083, 6.0129717 ] } },
{ "type": "Feature", "properties": { "name": "Ezy Pills Pharmacy", "name:en": "Ezy Pills Pharmacy", "amenity": "pharmacy", "building": null, "healthcare": "pharmacy", "healthcare:speciality": null, "operator:type": null, "capacity:persons": null, "addr:full": null, "addr:city": null, "source": null, "name:ms": null, "osm_id": 10951650619, "osm_type": "nodes" }, "geometry": { "type": "Point", "coordinates": [ 101.0903917, 4.5484216 ] } },
{ "type": "Feature", "properties": { "name": "Klinik 1 Malaysia", "name:en": null, "amenity": "clinic", "building": null, "healthcare": "clinic", "healthcare:speciality": null, "operator:type": null, "capacity:persons": null, "addr:full": null, "addr:city": "Teluk Intan", "source": null, "name:ms": null, "osm_id": 5360041888, "osm_type": "nodes" }, "geometry": { "type": "Point", "coordinates": [ 101.0052967, 3.9943603 ] } },
{ "type": "Feature", "properties": { "name": "Klinik As-Salam", "name:en": null, "amenity": "clinic", "building": null, "healthcare": "clinic", "healthcare:speciality": null, "operator:type": null, "capacity:persons": null, "addr:full": null, "addr:city": null, "source": null, "name:ms": null, "osm_id": 7726774797, "osm_type": "nodes" }, "geometry": { "type": "Point", "coordinates": [ 101.0750272, 4.6730803 ] } },
{ "type": "Feature", "properties": { "name": null, "name:en": null, "amenity": "pharmacy", "building": null, "healthcare": "pharmacy", "healthcare:speciality": null, "operator:type": null, "capacity:persons": null, "addr:full": null, "addr:city": null, "source": null, "name:ms": null, "osm_id": 8066541654, "osm_type": "nodes" }, "geometry": { "type": "Point", "coordinates": [ 101.1652878, 4.4727072 ] } },
{ "type": "Feature", "properties": { "name": "Farmasi Pharmalink Gopeng", "name:en": "Farmasi Pharmalink Gopeng", "amenity": "pharmacy", "building": null, "healthcare": "pharmacy", "healthcare:speciality": null, "operator:type": null, "capacity:persons": null, "addr:full": null, "addr:city": null, "source": "Openstreetcam", "name:ms": null, "osm_id": 4584745290, "osm_type": "nodes" }, "geometry": { "type": "Point", "coordinates": [ 101.1657197, 4.4731885 ] } },
{ "type": "Feature", "properties": { "name": "Klinik Kesihatan Sungai Tong", "name:en": null, "amenity": "clinic", "building": null, "healthcare": "clinic", "healthcare:speciality": null, "operator:type": null, "capacity:persons": null, "addr:full": null, "addr:city": "Sungai Tong, Hulu Nerus", "source": null, "name:ms": null, "osm_id": 6071055738, "osm_type": "nodes" }, "geometry": { "type": "Point", "coordinates": [ 102.9073339, 5.3073664 ] } },
{ "type": "Feature", "properties": { "name": "Klinik 1 Malaysia", "name:en": null, "amenity": "clinic", "building": null, "healthcare": "clinic", "healthcare:speciality": null, "operator:type": null, "capacity:persons": null, "addr:full": null, "addr:city": null, "source": null, "name:ms": null, "osm_id": 4947800025, "osm_type": "nodes" }, "geometry": { "type": "Point", "coordinates": [ 103.0915106, 5.3648418 ] } },
{ "type": "Feature", "properties": { "name": null, "name:en": null, "amenity": "dentist", "building": null, "healthcare": "dentist", "healthcare:speciality": null, "operator:type": null, "capacity:persons": null, "addr:full": null, "addr:city": null, "source": null, "name:ms": null, "osm_id": 4101504634, "osm_type": "nodes" }, "geometry": { "type": "Point", "coordinates": [ 103.0918931, 5.3461871 ] } },
{ "type": "Feature", "properties": { "name": "Syarikat Thong On Foe", "name:en": "Thong On Foe Medical Hall", "amenity": null, "building": null, "healthcare": "alternative", "healthcare:speciality": "traditional_chinese_medicine", "operator:type": null, "capacity:persons": null, "addr:full": null, "addr:city": "Lunas", "source": null, "name:ms": "Syarikat Thong On Foe", "osm_id": 4638930141, "osm_type": "nodes" }, "geometry": { "type": "Point", "coordinates": [ 100.5329444, 5.4293975 ] } },
{ "type": "Feature", "properties": { "name": "Sky Eye Optometry", "name:en": null, "amenity": null, "building": null, "healthcare": "optometrist", "healthcare:speciality": null, "operator:type": null, "capacity:persons": null, "addr:full": null, "addr:city": null, "source": null, "name:ms": null, "osm_id": 10698603747, "osm_type": "nodes" }, "geometry": { "type": "Point", "coordinates": [ 100.2761525, 5.3321836 ] } },
{ "type": "Feature", "properties": { "name": "Klinik Ikram", "name:en": null, "amenity": "clinic", "building": null, "healthcare": "clinic", "healthcare:speciality": null, "operator:type": null, "capacity:persons": null, "addr:full": null, "addr:city": null, "source": null, "name:ms": null, "osm_id": 7232914304, "osm_type": "nodes" }, "geometry": { "type": "Point", "coordinates": [ 103.0718096, 5.401785 ] } },
{ "type": "Feature", "properties": { "name": "Klinik Kesihatan Manir", "name:en": null, "amenity": "clinic", "building": null, "healthcare": "clinic", "healthcare:speciality": null, "operator:type": null, "capacity:persons": null, "addr:full": null, "addr:city": null, "source": null, "name:ms": null, "osm_id": 7172066869, "osm_type": "nodes" }, "geometry": { "type": "Point", "coordinates": [ 103.0813772, 5.3215674 ] } },
{ "type": "Feature", "properties": { "name": null, "name:en": null, "amenity": "clinic", "building": null, "healthcare": "clinic", "healthcare:speciality": null, "operator:type": null, "capacity:persons": null, "addr:full": null, "addr:city": null, "source": null, "name:ms": null, "osm_id": 3903969212, "osm_type": "nodes" }, "geometry": { "type": "Point", "coordinates": [ 103.0821004, 5.308717 ] } },
{ "type": "Feature", "properties": { "name": "Klinik Pergigian", "name:en": null, "amenity": "dentist", "building": null, "healthcare": "dentist", "healthcare:speciality": null, "operator:type": null, "capacity:persons": null, "addr:full": null, "addr:city": null, "source": null, "name:ms": null, "osm_id": 6761087067, "osm_type": "nodes" }, "geometry": { "type": "Point", "coordinates": [ 103.1350993, 5.328201 ] } },
{ "type": "Feature", "properties": { "name": "Klinik Pergigian Tengku Kamil & Fatimah", "name:en": null, "amenity": "dentist", "building": null, "healthcare": "dentist", "healthcare:speciality": null, "operator:type": null, "capacity:persons": null, "addr:full": null, "addr:city": "Kuala Terengganu", "source": null, "name:ms": null, "osm_id": 3224343806, "osm_type": "nodes" }, "geometry": { "type": "Point", "coordinates": [ 103.1352077, 5.3284158 ] } },
{ "type": "Feature", "properties": { "name": "Klinik Kesihatan Bukit Mentok", "name:en": null, "amenity": "clinic", "building": null, "healthcare": "clinic", "healthcare:speciality": null, "operator:type": null, "capacity:persons": null, "addr:full": null, "addr:city": null, "source": null, "name:ms": null, "osm_id": 6631813628, "osm_type": "nodes" }, "geometry": { "type": "Point", "coordinates": [ 103.4054326, 4.2188651 ] } },
{ "type": "Feature", "properties": { "name": "Ar-Ridzuan Medical Center", "name:en": null, "amenity": "hospital", "building": null, "healthcare": "hospital", "healthcare:speciality": null, "operator:type": null, "capacity:persons": null, "addr:full": null, "addr:city": null, "source": null, "name:ms": null, "osm_id": 2869691950, "osm_type": "nodes" }, "geometry": { "type": "Point", "coordinates": [ 101.0914577, 4.5878653 ] } },
{ "type": "Feature", "properties": { "name": "Tabanak Pharmacy Sdn. Bhd.", "name:en": null, "amenity": "pharmacy", "building": null, "healthcare": "pharmacy", "healthcare:speciality": null, "operator:type": null, "capacity:persons": null, "addr:full": null, "addr:city": "Lahad Datu", "source": null, "name:ms": null, "osm_id": 11050218714, "osm_type": "nodes" }, "geometry": { "type": "Point", "coordinates": [ 118.3124973, 5.033374 ] } },
{ "type": "Feature", "properties": { "name": null, "name:en": null, "amenity": "pharmacy", "building": null, "healthcare": "pharmacy", "healthcare:speciality": null, "operator:type": null, "capacity:persons": null, "addr:full": null, "addr:city": null, "source": null, "name:ms": null, "osm_id": 5469168921, "osm_type": "nodes" }, "geometry": { "type": "Point", "coordinates": [ 118.6132778, 4.4794477 ] } },
{ "type": "Feature", "properties": { "name": "Klinik Desa Pos Terisu", "name:en": null, "amenity": "clinic", "building": null, "healthcare": "clinic", "healthcare:speciality": null, "operator:type": null, "capacity:persons": null, "addr:full": null, "addr:city": "Cameron Highlands", "source": null, "name:ms": null, "osm_id": 4676156468, "osm_type": "nodes" }, "geometry": { "type": "Point", "coordinates": [ 101.4718863, 4.5305892 ] } },
{ "type": "Feature", "properties": { "name": "Guardian", "name:en": null, "amenity": "pharmacy", "building": null, "healthcare": "pharmacy", "healthcare:speciality": null, "operator:type": null, "capacity:persons": null, "addr:full": null, "addr:city": null, "source": null, "name:ms": null, "osm_id": 8263618877, "osm_type": "nodes" }, "geometry": { "type": "Point", "coordinates": [ 101.0937037, 4.6005262 ] } },
{ "type": "Feature", "properties": { "name": "Klinik Liau & Cheam", "name:en": null, "amenity": "doctors", "building": null, "healthcare": "doctor", "healthcare:speciality": null, "operator:type": null, "capacity:persons": null, "addr:full": null, "addr:city": "Cameron Highlands", "source": null, "name:ms": null, "osm_id": 4676993627, "osm_type": "nodes" }, "geometry": { "type": "Point", "coordinates": [ 101.3877376, 4.4930505 ] } },
{ "type": "Feature", "properties": { "name": "Klinik Rahim Hamzah", "name:en": null, "amenity": "clinic", "building": null, "healthcare": "clinic", "healthcare:speciality": null, "operator:type": null, "capacity:persons": null, "addr:full": null, "addr:city": null, "source": null, "name:ms": null, "osm_id": 6761087061, "osm_type": "nodes" }, "geometry": { "type": "Point", "coordinates": [ 103.143783, 5.3190331 ] } },
{ "type": "Feature", "properties": { "name": "Klinik Dr Ooi", "name:en": null, "amenity": "clinic", "building": null, "healthcare": "clinic", "healthcare:speciality": null, "operator:type": null, "capacity:persons": null, "addr:full": null, "addr:city": null, "source": null, "name:ms": null, "osm_id": 4331206707, "osm_type": "nodes" }, "geometry": { "type": "Point", "coordinates": [ 100.3641319, 6.0961476 ] } },
{ "type": "Feature", "properties": { "name": "Clinic Dr. Elaine", "name:en": null, "amenity": "clinic", "building": null, "healthcare": "clinic", "healthcare:speciality": null, "operator:type": null, "capacity:persons": null, "addr:full": null, "addr:city": null, "source": null, "name:ms": null, "osm_id": 2453847143, "osm_type": "nodes" }, "geometry": { "type": "Point", "coordinates": [ 116.0917792, 5.9492384 ] } },
{ "type": "Feature", "properties": { "name": "Eva Family Clinic", "name:en": null, "amenity": "doctors", "building": null, "healthcare": "doctor", "healthcare:speciality": null, "operator:type": null, "capacity:persons": null, "addr:full": null, "addr:city": null, "source": null, "name:ms": null, "osm_id": 8848633264, "osm_type": "nodes" }, "geometry": { "type": "Point", "coordinates": [ 100.3614781, 6.1094552 ] } },
{ "type": "Feature", "properties": { "name": "Pusat Sejahtera USM", "name:en": null, "amenity": "clinic", "building": null, "healthcare": "clinic", "healthcare:speciality": null, "operator:type": null, "capacity:persons": null, "addr:full": null, "addr:city": "Nibong Tebal", "source": null, "name:ms": null, "osm_id": 7491057619, "osm_type": "nodes" }, "geometry": { "type": "Point", "coordinates": [ 100.4906062, 5.1460454 ] } },
{ "type": "Feature", "properties": { "name": "Klinik Dr Latipah", "name:en": null, "amenity": "clinic", "building": null, "healthcare": null, "healthcare:speciality": null, "operator:type": null, "capacity:persons": null, "addr:full": null, "addr:city": null, "source": null, "name:ms": null, "osm_id": 9394677996, "osm_type": "nodes" }, "geometry": { "type": "Point", "coordinates": [ 100.6099847, 6.2556889 ] } },
{ "type": "Feature", "properties": { "name": null, "name:en": null, "amenity": "pharmacy", "building": null, "healthcare": "pharmacy", "healthcare:speciality": null, "operator:type": null, "capacity:persons": null, "addr:full": null, "addr:city": null, "source": null, "name:ms": null, "osm_id": 2475220991, "osm_type": "nodes" }, "geometry": { "type": "Point", "coordinates": [ 116.0713385, 5.9777799 ] } },
{ "type": "Feature", "properties": { "name": "City Parade Pharmacy", "name:en": null, "amenity": "pharmacy", "building": null, "healthcare": null, "healthcare:speciality": null, "operator:type": null, "capacity:persons": null, "addr:full": null, "addr:city": "Kota Kinabalu", "source": null, "name:ms": null, "osm_id": 10313890000, "osm_type": "nodes" }, "geometry": { "type": "Point", "coordinates": [ 116.0912224, 5.9623577 ] } },
{ "type": "Feature", "properties": { "name": null, "name:en": null, "amenity": "hospital", "building": null, "healthcare": null, "healthcare:speciality": null, "operator:type": null, "capacity:persons": null, "addr:full": null, "addr:city": null, "source": null, "name:ms": null, "osm_id": 4746303827, "osm_type": "nodes" }, "geometry": { "type": "Point", "coordinates": [ 118.2869814, 5.5104 ] } },
{ "type": "Feature", "properties": { "name": "Petagas Pharmacy", "name:en": null, "amenity": "pharmacy", "building": null, "healthcare": "pharmacy", "healthcare:speciality": null, "operator:type": null, "capacity:persons": null, "addr:full": null, "addr:city": null, "source": null, "name:ms": null, "osm_id": 2341517375, "osm_type": "nodes" }, "geometry": { "type": "Point", "coordinates": [ 116.0505111, 5.914223 ] } },
{ "type": "Feature", "properties": { "name": "Klinik Desa Biau", "name:en": null, "amenity": "clinic", "building": null, "healthcare": "clinic", "healthcare:speciality": "paediatrics", "operator:type": null, "capacity:persons": null, "addr:full": null, "addr:city": null, "source": null, "name:ms": null, "osm_id": 10943188149, "osm_type": "nodes" }, "geometry": { "type": "Point", "coordinates": [ 115.9605394, 5.7180346 ] } },
{ "type": "Feature", "properties": { "name": "Klinik Desa Lagud Sebrang", "name:en": null, "amenity": "clinic", "building": null, "healthcare": "clinic", "healthcare:speciality": null, "operator:type": null, "capacity:persons": null, "addr:full": null, "addr:city": null, "source": null, "name:ms": null, "osm_id": 5245285822, "osm_type": "nodes" }, "geometry": { "type": "Point", "coordinates": [ 115.9898262, 5.1689943 ] } },
{ "type": "Feature", "properties": { "name": "Klinik Rusli", "name:en": null, "amenity": "clinic", "building": null, "healthcare": null, "healthcare:speciality": null, "operator:type": null, "capacity:persons": null, "addr:full": null, "addr:city": null, "source": null, "name:ms": null, "osm_id": 10208990564, "osm_type": "nodes" }, "geometry": { "type": "Point", "coordinates": [ 102.2427915, 6.1290362 ] } },
{ "type": "Feature", "properties": { "name": "Klinik Pergigian Phoon", "name:en": "Phoon Dental Surgery", "amenity": "dentist", "building": null, "healthcare": "dentist", "healthcare:speciality": null, "operator:type": null, "capacity:persons": null, "addr:full": null, "addr:city": "George Town", "source": null, "name:ms": null, "osm_id": 9848448675, "osm_type": "nodes" }, "geometry": { "type": "Point", "coordinates": [ 100.3086662, 5.4034343 ] } },
{ "type": "Feature", "properties": { "name": "Klinik Desa Nambayan", "name:en": null, "amenity": "clinic", "building": null, "healthcare": "clinic", "healthcare:speciality": null, "operator:type": null, "capacity:persons": null, "addr:full": null, "addr:city": null, "source": null, "name:ms": null, "osm_id": 9813542668, "osm_type": "nodes" }, "geometry": { "type": "Point", "coordinates": [ 116.3432992, 5.6415594 ] } },
{ "type": "Feature", "properties": { "name": "Klinik Primer Wakaf Bharu", "name:en": null, "amenity": "clinic", "building": null, "healthcare": null, "healthcare:speciality": null, "operator:type": null, "capacity:persons": null, "addr:full": null, "addr:city": "Wakaf Bharu", "source": null, "name:ms": null, "osm_id": 8985427514, "osm_type": "nodes" }, "geometry": { "type": "Point", "coordinates": [ 102.2165215, 6.1202889 ] } },
{ "type": "Feature", "properties": { "name": "Klinik Dr. Aziz", "name:en": null, "amenity": "clinic", "building": null, "healthcare": "community", "healthcare:speciality": null, "operator:type": null, "capacity:persons": null, "addr:full": null, "addr:city": null, "source": null, "name:ms": null, "osm_id": 8836640328, "osm_type": "nodes" }, "geometry": { "type": "Point", "coordinates": [ 102.200573, 6.121033 ] } },
{ "type": "Feature", "properties": { "name": "HOR CHOON HAW CHIROPRACTIC", "name:en": "HOR CHOON HAW CHIROPRACTIC", "amenity": "doctors", "building": null, "healthcare": "doctor", "healthcare:speciality": null, "operator:type": null, "capacity:persons": null, "addr:full": null, "addr:city": null, "source": null, "name:ms": null, "osm_id": 4804932821, "osm_type": "nodes" }, "geometry": { "type": "Point", "coordinates": [ 100.3187556, 5.4119839 ] } },
{ "type": "Feature", "properties": { "name": "Klinik Adra", "name:en": null, "amenity": "clinic", "building": null, "healthcare": null, "healthcare:speciality": null, "operator:type": null, "capacity:persons": null, "addr:full": null, "addr:city": null, "source": null, "name:ms": null, "osm_id": 10963823887, "osm_type": "nodes" }, "geometry": { "type": "Point", "coordinates": [ 102.5676295, 5.8023552 ] } },
{ "type": "Feature", "properties": { "name": "Klinik Gigi Berkat", "name:en": null, "amenity": "dentist", "building": null, "healthcare": null, "healthcare:speciality": null, "operator:type": null, "capacity:persons": null, "addr:full": null, "addr:city": null, "source": null, "name:ms": null, "osm_id": 10764045511, "osm_type": "nodes" }, "geometry": { "type": "Point", "coordinates": [ 102.4956031, 5.7377507 ] } },
{ "type": "Feature", "properties": { "name": "Siang Pharmacy", "name:en": null, "amenity": "pharmacy", "building": null, "healthcare": "pharmacy", "healthcare:speciality": null, "operator:type": null, "capacity:persons": null, "addr:full": null, "addr:city": "Bukit Mertajam", "source": "https://www.mapillary.com/app/?pKey=06n9YxcGo9hbhuHcx5mWKo&focus=photo", "name:ms": null, "osm_id": 7728876262, "osm_type": "nodes" }, "geometry": { "type": "Point", "coordinates": [ 100.4805067, 5.3321755 ] } },
{ "type": "Feature", "properties": { "name": "Poliklinik Ikhsan", "name:en": null, "amenity": "clinic", "building": null, "healthcare": "clinic", "healthcare:speciality": null, "operator:type": null, "capacity:persons": null, "addr:full": null, "addr:city": null, "source": "https://www.mapillary.com/app/?pKey=QDBuy09anPzJCtgbS4HmGE&focus=photo", "name:ms": null, "osm_id": 4618661468, "osm_type": "nodes" }, "geometry": { "type": "Point", "coordinates": [ 100.4271073, 5.3671527 ] } },
{ "type": "Feature", "properties": { "name": "Klinik Utama", "name:en": null, "amenity": "clinic", "building": null, "healthcare": "clinic", "healthcare:speciality": null, "operator:type": null, "capacity:persons": null, "addr:full": null, "addr:city": null, "source": null, "name:ms": null, "osm_id": 6562886852, "osm_type": "nodes" }, "geometry": { "type": "Point", "coordinates": [ 100.444963, 5.3638471 ] } },
{ "type": "Feature", "properties": { "name": "Klinik Ria Dr. Foo", "name:en": null, "amenity": "clinic", "building": null, "healthcare": "clinic", "healthcare:speciality": null, "operator:type": null, "capacity:persons": null, "addr:full": null, "addr:city": null, "source": null, "name:ms": null, "osm_id": 6562910403, "osm_type": "nodes" }, "geometry": { "type": "Point", "coordinates": [ 100.4449736, 5.3639064 ] } },
{ "type": "Feature", "properties": { "name": "Klinik Lim Siew Kim", "name:en": null, "amenity": "clinic", "building": null, "healthcare": "clinic", "healthcare:speciality": null, "operator:type": null, "capacity:persons": null, "addr:full": null, "addr:city": null, "source": null, "name:ms": null, "osm_id": 9459869389, "osm_type": "nodes" }, "geometry": { "type": "Point", "coordinates": [ 100.3126818, 5.3887686 ] } },
{ "type": "Feature", "properties": { "name": "Klinik Kesihatan Bukit Garam", "name:en": null, "amenity": "hospital", "building": null, "healthcare": null, "healthcare:speciality": null, "operator:type": null, "capacity:persons": null, "addr:full": null, "addr:city": null, "source": null, "name:ms": null, "osm_id": 6147237287, "osm_type": "nodes" }, "geometry": { "type": "Point", "coordinates": [ 117.840108, 5.4914859 ] } },
{ "type": "Feature", "properties": { "name": "KKIA Ulu dusun", "name:en": null, "amenity": "clinic", "building": null, "healthcare": "clinic", "healthcare:speciality": null, "operator:type": null, "capacity:persons": null, "addr:full": null, "addr:city": null, "source": null, "name:ms": null, "osm_id": 5041119221, "osm_type": "nodes" }, "geometry": { "type": "Point", "coordinates": [ 117.7672439, 5.7865449 ] } },
{ "type": "Feature", "properties": { "name": null, "name:en": null, "amenity": "doctors", "building": null, "healthcare": null, "healthcare:speciality": null, "operator:type": null, "capacity:persons": null, "addr:full": null, "addr:city": null, "source": null, "name:ms": null, "osm_id": 6711407385, "osm_type": "nodes" }, "geometry": { "type": "Point", "coordinates": [ 118.0527819, 5.8619867 ] } },
{ "type": "Feature", "properties": { "name": "F.T.S. Chin", "name:en": null, "amenity": "dentist", "building": null, "healthcare": "dentist", "healthcare:speciality": null, "operator:type": null, "capacity:persons": null, "addr:full": null, "addr:city": null, "source": null, "name:ms": null, "osm_id": 5966309793, "osm_type": "nodes" }, "geometry": { "type": "Point", "coordinates": [ 116.1123716, 5.9925906 ] } },
{ "type": "Feature", "properties": { "name": "Poliklinik Pinji", "name:en": null, "amenity": "clinic", "building": null, "healthcare": "clinic", "healthcare:speciality": null, "operator:type": null, "capacity:persons": null, "addr:full": null, "addr:city": null, "source": null, "name:ms": null, "osm_id": 9529243966, "osm_type": "nodes" }, "geometry": { "type": "Point", "coordinates": [ 101.0827441, 4.5776616 ] } },
{ "type": "Feature", "properties": { "name": "Klinik Jannah", "name:en": null, "amenity": "clinic", "building": null, "healthcare": "clinic", "healthcare:speciality": null, "operator:type": null, "capacity:persons": null, "addr:full": null, "addr:city": null, "source": null, "name:ms": "Klinik Jannah", "osm_id": 10931199603, "osm_type": "nodes" }, "geometry": { "type": "Point", "coordinates": [ 101.2631849, 4.1960836 ] } },
{ "type": "Feature", "properties": { "name": "Choo Clinic", "name:en": null, "amenity": "clinic", "building": null, "healthcare": "clinic", "healthcare:speciality": null, "operator:type": null, "capacity:persons": null, "addr:full": null, "addr:city": "Ipoh", "source": null, "name:ms": null, "osm_id": 7286346050, "osm_type": "nodes" }, "geometry": { "type": "Point", "coordinates": [ 101.1212892, 4.6144936 ] } },
{ "type": "Feature", "properties": { "name": "Poliklinik Ipoh Jaya", "name:en": null, "amenity": "clinic", "building": null, "healthcare": "clinic", "healthcare:speciality": null, "operator:type": null, "capacity:persons": null, "addr:full": null, "addr:city": null, "source": null, "name:ms": null, "osm_id": 8276978218, "osm_type": "nodes" }, "geometry": { "type": "Point", "coordinates": [ 101.1239382, 4.5758314 ] } },
{ "type": "Feature", "properties": { "name": "Poliklinik V-Care", "name:en": null, "amenity": "clinic", "building": null, "healthcare": "clinic", "healthcare:speciality": null, "operator:type": null, "capacity:persons": null, "addr:full": null, "addr:city": null, "source": null, "name:ms": null, "osm_id": 8276978220, "osm_type": "nodes" }, "geometry": { "type": "Point", "coordinates": [ 101.123335, 4.5767475 ] } },
{ "type": "Feature", "properties": { "name": "Mutiara Dialýß", "name:en": "Mutiara Dialýsis", "amenity": "pharmacy", "building": null, "healthcare": "pharmacy", "healthcare:speciality": null, "operator:type": null, "capacity:persons": null, "addr:full": null, "addr:city": null, "source": null, "name:ms": null, "osm_id": 8353914331, "osm_type": "nodes" }, "geometry": { "type": "Point", "coordinates": [ 100.6668632, 4.2002387 ] } },
{ "type": "Feature", "properties": { "name": "Klinik Komuniti", "name:en": null, "amenity": "doctors", "building": null, "healthcare": "doctor", "healthcare:speciality": null, "operator:type": null, "capacity:persons": null, "addr:full": null, "addr:city": "Kuala Kangsar", "source": null, "name:ms": null, "osm_id": 5025008007, "osm_type": "nodes" }, "geometry": { "type": "Point", "coordinates": [ 100.8590894, 4.7760997 ] } },
{ "type": "Feature", "properties": { "name": "farmasi sitiawan", "name:en": null, "amenity": "pharmacy", "building": null, "healthcare": "pharmacy", "healthcare:speciality": null, "operator:type": null, "capacity:persons": null, "addr:full": null, "addr:city": null, "source": null, "name:ms": null, "osm_id": 6165084488, "osm_type": "nodes" }, "geometry": { "type": "Point", "coordinates": [ 100.6910433, 4.2155826 ] } },
{ "type": "Feature", "properties": { "name": "Klinik Desa Bukit Chupak", "name:en": null, "amenity": "clinic", "building": null, "healthcare": "clinic", "healthcare:speciality": null, "operator:type": null, "capacity:persons": null, "addr:full": null, "addr:city": "Parit", "source": null, "name:ms": null, "osm_id": 4588824197, "osm_type": "nodes" }, "geometry": { "type": "Point", "coordinates": [ 100.9062959, 4.4432002 ] } },
{ "type": "Feature", "properties": { "name": "iDentist", "name:en": null, "amenity": "dentist", "building": null, "healthcare": "dentist", "healthcare:speciality": null, "operator:type": null, "capacity:persons": null, "addr:full": null, "addr:city": null, "source": null, "name:ms": null, "osm_id": 6688030185, "osm_type": "nodes" }, "geometry": { "type": "Point", "coordinates": [ 101.1109773, 4.6598169 ] } },
{ "type": "Feature", "properties": { "name": "farmasi hing", "name:en": null, "amenity": "pharmacy", "building": null, "healthcare": "pharmacy", "healthcare:speciality": null, "operator:type": null, "capacity:persons": null, "addr:full": null, "addr:city": null, "source": null, "name:ms": null, "osm_id": 6165087085, "osm_type": "nodes" }, "geometry": { "type": "Point", "coordinates": [ 100.6901377, 4.2145069 ] } },
{ "type": "Feature", "properties": { "name": "H-Point Pharmacy", "name:en": "H-Point Pharmacy", "amenity": "pharmacy", "building": null, "healthcare": "pharmacy", "healthcare:speciality": null, "operator:type": null, "capacity:persons": null, "addr:full": null, "addr:city": null, "source": null, "name:ms": null, "osm_id": 4981383626, "osm_type": "nodes" }, "geometry": { "type": "Point", "coordinates": [ 101.0852991, 4.5973274 ] } },
{ "type": "Feature", "properties": { "name": null, "name:en": null, "amenity": "pharmacy", "building": null, "healthcare": "pharmacy", "healthcare:speciality": null, "operator:type": null, "capacity:persons": null, "addr:full": null, "addr:city": null, "source": null, "name:ms": null, "osm_id": 6499486886, "osm_type": "nodes" }, "geometry": { "type": "Point", "coordinates": [ 101.0782606, 4.5957204 ] } },
{ "type": "Feature", "properties": { "name": null, "name:en": null, "amenity": "pharmacy", "building": null, "healthcare": "pharmacy", "healthcare:speciality": null, "operator:type": null, "capacity:persons": null, "addr:full": null, "addr:city": null, "source": null, "name:ms": null, "osm_id": 4957865521, "osm_type": "nodes" }, "geometry": { "type": "Point", "coordinates": [ 101.0583077, 4.5989616 ] } },
{ "type": "Feature", "properties": { "name": "Pathlab", "name:en": null, "amenity": null, "building": null, "healthcare": "laboratory", "healthcare:speciality": null, "operator:type": null, "capacity:persons": null, "addr:full": null, "addr:city": "Ipoh", "source": null, "name:ms": null, "osm_id": 8581485365, "osm_type": "nodes" }, "geometry": { "type": "Point", "coordinates": [ 101.0837155, 4.5980305 ] } },
{ "type": "Feature", "properties": { "name": "Farmasi Auni Medicare", "name:en": null, "amenity": "pharmacy", "building": null, "healthcare": "pharmacy", "healthcare:speciality": null, "operator:type": null, "capacity:persons": null, "addr:full": null, "addr:city": null, "source": null, "name:ms": null, "osm_id": 8219415119, "osm_type": "nodes" }, "geometry": { "type": "Point", "coordinates": [ 101.0823805, 4.6760264 ] } },
{ "type": "Feature", "properties": { "name": "Limbang Medical Clinic (Dr. Lau & Dr. Ong)", "name:en": null, "amenity": "clinic", "building": null, "healthcare": "clinic", "healthcare:speciality": null, "operator:type": null, "capacity:persons": null, "addr:full": null, "addr:city": null, "source": null, "name:ms": null, "osm_id": 2697135498, "osm_type": "nodes" }, "geometry": { "type": "Point", "coordinates": [ 115.0088566, 4.7533567 ] } },
{ "type": "Feature", "properties": { "name": "Klinik Kesihatan Lenggong", "name:en": null, "amenity": "clinic", "building": null, "healthcare": "clinic", "healthcare:speciality": null, "operator:type": null, "capacity:persons": null, "addr:full": null, "addr:city": null, "source": null, "name:ms": null, "osm_id": 6068977071, "osm_type": "nodes" }, "geometry": { "type": "Point", "coordinates": [ 100.9647952, 5.0965366 ] } },
{ "type": "Feature", "properties": { "name": "Poliklinik Telupid", "name:en": "Poliklinik Telupid", "amenity": "clinic", "building": null, "healthcare": "clinic", "healthcare:speciality": null, "operator:type": null, "capacity:persons": null, "addr:full": null, "addr:city": null, "source": null, "name:ms": null, "osm_id": 5083385424, "osm_type": "nodes" }, "geometry": { "type": "Point", "coordinates": [ 117.1313723, 5.6278012 ] } },
{ "type": "Feature", "properties": { "name": "Guardian", "name:en": null, "amenity": "pharmacy", "building": null, "healthcare": "pharmacy", "healthcare:speciality": null, "operator:type": null, "capacity:persons": null, "addr:full": null, "addr:city": "Kuala Kangsar", "source": null, "name:ms": null, "osm_id": 4585394944, "osm_type": "nodes" }, "geometry": { "type": "Point", "coordinates": [ 100.9418886, 4.7715561 ] } },
{ "type": "Feature", "properties": { "name": "Klinik Pergigian Teh", "name:en": "Teh Dental Surgery", "amenity": "dentist", "building": null, "healthcare": "dentist", "healthcare:speciality": null, "operator:type": null, "capacity:persons": null, "addr:full": null, "addr:city": "Kuala Kangsar", "source": null, "name:ms": null, "osm_id": 5029346335, "osm_type": "nodes" }, "geometry": { "type": "Point", "coordinates": [ 100.9419445, 4.7749834 ] } },
{ "type": "Feature", "properties": { "name": "Klinik Ng & Rakan-rakan", "name:en": null, "amenity": "doctors", "building": null, "healthcare": "doctor", "healthcare:speciality": null, "operator:type": null, "capacity:persons": null, "addr:full": null, "addr:city": "Kuala Kangsar", "source": null, "name:ms": null, "osm_id": 5029346334, "osm_type": "nodes" }, "geometry": { "type": "Point", "coordinates": [ 100.9419497, 4.7748014 ] } },
{ "type": "Feature", "properties": { "name": "Klinik Uma", "name:en": null, "amenity": "doctors", "building": null, "healthcare": "doctor", "healthcare:speciality": null, "operator:type": null, "capacity:persons": null, "addr:full": null, "addr:city": "Kuala Kangsar", "source": null, "name:ms": null, "osm_id": 5029346522, "osm_type": "nodes" }, "geometry": { "type": "Point", "coordinates": [ 100.9348654, 4.7706267 ] } },
{ "type": "Feature", "properties": { "name": "Klinik Kuala Kangsar", "name:en": null, "amenity": "doctors", "building": null, "healthcare": "doctor", "healthcare:speciality": null, "operator:type": null, "capacity:persons": null, "addr:full": null, "addr:city": "Kuala Kangsar", "source": null, "name:ms": null, "osm_id": 5027102122, "osm_type": "nodes" }, "geometry": { "type": "Point", "coordinates": [ 100.9401146, 4.7703742 ] } },
{ "type": "Feature", "properties": { "name": "Cosway", "name:en": null, "amenity": "pharmacy", "building": null, "healthcare": "pharmacy", "healthcare:speciality": null, "operator:type": null, "capacity:persons": null, "addr:full": null, "addr:city": null, "source": null, "name:ms": null, "osm_id": 4674080030, "osm_type": "nodes" }, "geometry": { "type": "Point", "coordinates": [ 100.5544233, 5.3690537 ] } },
{ "type": "Feature", "properties": { "name": "Klinik Bersatu", "name:en": null, "amenity": "clinic", "building": null, "healthcare": "clinic", "healthcare:speciality": null, "operator:type": null, "capacity:persons": null, "addr:full": null, "addr:city": null, "source": null, "name:ms": null, "osm_id": 4674080008, "osm_type": "nodes" }, "geometry": { "type": "Point", "coordinates": [ 100.5547068, 5.3698878 ] } },
{ "type": "Feature", "properties": { "name": "Klinik Dr Chang", "name:en": null, "amenity": "clinic", "building": null, "healthcare": "clinic", "healthcare:speciality": null, "operator:type": null, "capacity:persons": null, "addr:full": null, "addr:city": null, "source": null, "name:ms": null, "osm_id": 4674080004, "osm_type": "nodes" }, "geometry": { "type": "Point", "coordinates": [ 100.5549306, 5.3701199 ] } },
{ "type": "Feature", "properties": { "name": "Klinik Safiya", "name:en": null, "amenity": "clinic", "building": null, "healthcare": "clinic", "healthcare:speciality": null, "operator:type": null, "capacity:persons": null, "addr:full": null, "addr:city": null, "source": null, "name:ms": null, "osm_id": 4665596204, "osm_type": "nodes" }, "geometry": { "type": "Point", "coordinates": [ 100.5461176, 5.3844789 ] } },
{ "type": "Feature", "properties": { "name": "Klinik Desa Jelai", "name:en": null, "amenity": "clinic", "building": null, "healthcare": "clinic", "healthcare:speciality": null, "operator:type": null, "capacity:persons": null, "addr:full": null, "addr:city": null, "source": null, "name:ms": null, "osm_id": 9969830359, "osm_type": "nodes" }, "geometry": { "type": "Point", "coordinates": [ 100.8101433, 5.0126091 ] } },
{ "type": "Feature", "properties": { "name": "Klinik Vigneshwer", "name:en": null, "amenity": "clinic", "building": null, "healthcare": "clinic", "healthcare:speciality": null, "operator:type": null, "capacity:persons": null, "addr:full": null, "addr:city": null, "source": null, "name:ms": null, "osm_id": 4957823516, "osm_type": "nodes" }, "geometry": { "type": "Point", "coordinates": [ 100.5581309, 5.3975364 ] } },
{ "type": "Feature", "properties": { "name": "Klinik Nova", "name:en": null, "amenity": "clinic", "building": null, "healthcare": "clinic", "healthcare:speciality": "general", "operator:type": null, "capacity:persons": null, "addr:full": null, "addr:city": "Kuala Lumpur", "source": null, "name:ms": "Klinik Nova", "osm_id": 9929188644, "osm_type": "nodes" }, "geometry": { "type": "Point", "coordinates": [ 101.66912, 3.2093444 ] } },
{ "type": "Feature", "properties": { "name": "Klinik Desa Dalit", "name:en": null, "amenity": "clinic", "building": null, "healthcare": "clinic", "healthcare:speciality": null, "operator:type": null, "capacity:persons": null, "addr:full": null, "addr:city": null, "source": null, "name:ms": null, "osm_id": 7886180589, "osm_type": "nodes" }, "geometry": { "type": "Point", "coordinates": [ 116.1236971, 5.0206501 ] } },
{ "type": "Feature", "properties": { "name": "Klinik & Surgeri Noosob", "name:en": null, "amenity": "hospital", "building": null, "healthcare": null, "healthcare:speciality": null, "operator:type": null, "capacity:persons": null, "addr:full": null, "addr:city": null, "source": null, "name:ms": null, "osm_id": 2467227891, "osm_type": "nodes" }, "geometry": { "type": "Point", "coordinates": [ 116.076792, 5.9280501 ] } },
{ "type": "Feature", "properties": { "name": null, "name:en": null, "amenity": "pharmacy", "building": null, "healthcare": "pharmacy", "healthcare:speciality": null, "operator:type": null, "capacity:persons": null, "addr:full": null, "addr:city": null, "source": null, "name:ms": null, "osm_id": 5175679422, "osm_type": "nodes" }, "geometry": { "type": "Point", "coordinates": [ 116.0750113, 5.9785795 ] } },
{ "type": "Feature", "properties": { "name": "Klinik Dr. Mustafa", "name:en": null, "amenity": "doctors", "building": null, "healthcare": "doctor", "healthcare:speciality": null, "operator:type": null, "capacity:persons": null, "addr:full": null, "addr:city": null, "source": null, "name:ms": null, "osm_id": 5966309791, "osm_type": "nodes" }, "geometry": { "type": "Point", "coordinates": [ 116.112271, 5.9925859 ] } },
{ "type": "Feature", "properties": { "name": "Synergy Specialist Eye Centre", "name:en": null, "amenity": "clinic", "building": null, "healthcare": "optometrist", "healthcare:speciality": "ophthalmology", "operator:type": null, "capacity:persons": null, "addr:full": null, "addr:city": "Kota Kinabalu", "source": null, "name:ms": null, "osm_id": 10160208077, "osm_type": "nodes" }, "geometry": { "type": "Point", "coordinates": [ 116.1074381, 5.9667774 ] } },
{ "type": "Feature", "properties": { "name": "Pantai Hospital Ipoh", "name:en": null, "amenity": "hospital", "building": null, "healthcare": "hospital", "healthcare:speciality": null, "operator:type": null, "capacity:persons": null, "addr:full": null, "addr:city": null, "source": null, "name:ms": null, "osm_id": 2906645453, "osm_type": "nodes" }, "geometry": { "type": "Point", "coordinates": [ 101.1197143, 4.6034393 ] } },
{ "type": "Feature", "properties": { "name": "Friendly Specialists Clinic Dr Fong Dr Hsu", "name:en": null, "amenity": "clinic", "building": null, "healthcare": "clinic", "healthcare:speciality": null, "operator:type": null, "capacity:persons": null, "addr:full": null, "addr:city": null, "source": null, "name:ms": null, "osm_id": 2483137697, "osm_type": "nodes" }, "geometry": { "type": "Point", "coordinates": [ 116.0767065, 5.9265353 ] } },
{ "type": "Feature", "properties": { "name": "Klinik 1Malaysia Meru Jaya", "name:en": null, "amenity": "clinic", "building": null, "healthcare": "clinic", "healthcare:speciality": null, "operator:type": null, "capacity:persons": null, "addr:full": null, "addr:city": null, "source": null, "name:ms": null, "osm_id": 2868251626, "osm_type": "nodes" }, "geometry": { "type": "Point", "coordinates": [ 101.0758443, 4.673187 ] } },
{ "type": "Feature", "properties": { "name": "GreenPharm Pharmacy", "name:en": null, "amenity": "pharmacy", "building": null, "healthcare": "pharmacy", "healthcare:speciality": null, "operator:type": null, "capacity:persons": null, "addr:full": null, "addr:city": "Ipoh", "source": null, "name:ms": null, "osm_id": 9135751594, "osm_type": "nodes" }, "geometry": { "type": "Point", "coordinates": [ 101.1133705, 4.5706258 ] } },
{ "type": "Feature", "properties": { "name": null, "name:en": null, "amenity": "dentist", "building": null, "healthcare": "dentist", "healthcare:speciality": null, "operator:type": null, "capacity:persons": null, "addr:full": null, "addr:city": null, "source": null, "name:ms": null, "osm_id": 3659753021, "osm_type": "nodes" }, "geometry": { "type": "Point", "coordinates": [ 103.0925491, 5.3468229 ] } },
{ "type": "Feature", "properties": { "name": "Klinik Dr Alwani", "name:en": null, "amenity": "clinic", "building": null, "healthcare": null, "healthcare:speciality": null, "operator:type": null, "capacity:persons": null, "addr:full": null, "addr:city": null, "source": null, "name:ms": null, "osm_id": 8938669842, "osm_type": "nodes" }, "geometry": { "type": "Point", "coordinates": [ 102.3306218, 5.8949021 ] } },
{ "type": "Feature", "properties": { "name": "Klinik Pergigian Dr. Fadzli", "name:en": null, "amenity": "dentist", "building": null, "healthcare": "dentist", "healthcare:speciality": null, "operator:type": null, "capacity:persons": null, "addr:full": null, "addr:city": null, "source": null, "name:ms": null, "osm_id": 7726774795, "osm_type": "nodes" }, "geometry": { "type": "Point", "coordinates": [ 101.0753182, 4.6736023 ] } },
{ "type": "Feature", "properties": { "name": "Klinik Kesihatan Tanjung Sepat", "name:en": null, "amenity": "clinic", "building": null, "healthcare": "clinic", "healthcare:speciality": null, "operator:type": null, "capacity:persons": null, "addr:full": null, "addr:city": null, "source": null, "name:ms": null, "osm_id": 3617375393, "osm_type": "nodes" }, "geometry": { "type": "Point", "coordinates": [ 101.5512736, 2.6658478 ] } },
{ "type": "Feature", "properties": { "name": "Klinik Desa Kampung Bandar", "name:en": null, "amenity": "clinic", "building": null, "healthcare": "clinic", "healthcare:speciality": null, "operator:type": null, "capacity:persons": null, "addr:full": null, "addr:city": null, "source": null, "name:ms": null, "osm_id": 6465901783, "osm_type": "nodes" }, "geometry": { "type": "Point", "coordinates": [ 100.8925045, 5.7469232 ] } },
{ "type": "Feature", "properties": { "name": "Polyklinik Kampar", "name:en": null, "amenity": "clinic", "building": null, "healthcare": "clinic", "healthcare:speciality": null, "operator:type": null, "capacity:persons": null, "addr:full": null, "addr:city": null, "source": null, "name:ms": "Polyklinik Kampar", "osm_id": 4936603881, "osm_type": "nodes" }, "geometry": { "type": "Point", "coordinates": [ 101.1517309, 4.3113784 ] } },
{ "type": "Feature", "properties": { "name": "UTAR Community Counselling Centre (UCCC)", "name:en": "UTAR Community Counselling Centre (UCCC)", "amenity": null, "building": null, "healthcare": "counselling", "healthcare:speciality": "general", "operator:type": "private", "capacity:persons": null, "addr:full": null, "addr:city": "Kampar", "source": null, "name:ms": null, "osm_id": 9796166765, "osm_type": "nodes" }, "geometry": { "type": "Point", "coordinates": [ 101.1369711, 4.3380401 ] } },
{ "type": "Feature", "properties": { "name": "Pain Paralysis Physioteraphy Centre", "name:en": null, "amenity": null, "building": null, "healthcare": "rehabilitation", "healthcare:speciality": null, "operator:type": null, "capacity:persons": null, "addr:full": null, "addr:city": null, "source": null, "name:ms": null, "osm_id": 7725980895, "osm_type": "nodes" }, "geometry": { "type": "Point", "coordinates": [ 101.0773213, 4.671705 ] } },
{ "type": "Feature", "properties": { "name": "Klinik Kesihatan Kg. Perancangan, Ranau", "name:en": null, "amenity": "hospital", "building": null, "healthcare": "hospital", "healthcare:speciality": null, "operator:type": null, "capacity:persons": null, "addr:full": null, "addr:city": null, "source": null, "name:ms": null, "osm_id": 9861577510, "osm_type": "nodes" }, "geometry": { "type": "Point", "coordinates": [ 116.8005706, 6.0731517 ] } },
{ "type": "Feature", "properties": { "name": "Persatuan Hemodialisis", "name:en": null, "amenity": "clinic", "building": null, "healthcare": "dialysis", "healthcare:speciality": "nephrology", "operator:type": null, "capacity:persons": null, "addr:full": null, "addr:city": "Kota Kinabalu", "source": null, "name:ms": null, "osm_id": 9859927975, "osm_type": "nodes" }, "geometry": { "type": "Point", "coordinates": [ 116.0562914, 5.9546951 ] } },
{ "type": "Feature", "properties": { "name": "Klinik Mediviron", "name:en": null, "amenity": "clinic", "building": null, "healthcare": null, "healthcare:speciality": null, "operator:type": null, "capacity:persons": null, "addr:full": null, "addr:city": null, "source": null, "name:ms": null, "osm_id": 10605293589, "osm_type": "nodes" }, "geometry": { "type": "Point", "coordinates": [ 103.6570707, 1.4801465 ] } },
{ "type": "Feature", "properties": { "name": "Klinik Pergigian Yap", "name:en": "Yap Dental Clinic", "amenity": "dentist", "building": null, "healthcare": null, "healthcare:speciality": null, "operator:type": null, "capacity:persons": null, "addr:full": null, "addr:city": null, "source": null, "name:ms": "Klinik Pergigian Yap", "osm_id": 10605293596, "osm_type": "nodes" }, "geometry": { "type": "Point", "coordinates": [ 103.6574958, 1.4805125 ] } },